[
  { "city": "Marina di Sibari", "lng": 16.4850001, "lat": 39.7452844 },
  { "city": "Mestre", "lng": 12.2418053, "lat": 45.4943063 },
  { "city": "Sant'Erasmo", "lng": 12.3937407, "lat": 45.453341 },
  { "city": "Punta Sabbioni", "lng": 12.4276007, "lat": 45.4477418 },
  { "city": "Cavallino", "lng": 12.5507252, "lat": 45.480076 },
  { "city": "Dese", "lng": 12.3034634, "lat": 45.5268006 },
  { "city": "San Liberale", "lng": 12.3418461, "lat": 45.5484231 },
  { "city": "Colmello", "lng": 12.2771742, "lat": 45.5589834 },
  { "city": "Duna Verde", "lng": 12.804949, "lat": 45.5663872 },
  { "city": "Roverdicrè", "lng": 11.7523077, "lat": 45.0709765 },
  { "city": "Vallenoncello", "lng": 12.6428866, "lat": 45.9323813 },
  { "city": "Bibione Pineda", "lng": 13.0038455, "lat": 45.6325562 },
  { "city": "Ottava Presa", "lng": 12.836315, "lat": 45.6498735 },
  { "city": "Conaprato", "lng": 13.896031, "lat": 42.4674691 },
  { "city": "Portacaldaia", "lng": 13.9074839, "lat": 42.4629789 },
  { "city": "Santa Teresa", "lng": 14.158931, "lat": 42.423795 },
  { "city": "Vestea", "lng": 13.8851376, "lat": 42.3893609 },
  { "city": "San Pellegrino", "lng": 13.9355438, "lat": 42.4145838 },
  { "city": "Colle Trotta", "lng": 13.873381, "lat": 42.4725559 },
  { "city": "Isola", "lng": 11.6950885, "lat": 44.2676369 },
  { "city": "Borgo Rivola", "lng": 11.6718234, "lat": 44.2614772 },
  { "city": "Castel Bolognese", "lng": 11.7992579, "lat": 44.3204868 },
  { "city": "Ponticelli", "lng": 11.6546526, "lat": 44.3229419 },
  { "city": "Fabbrica", "lng": 11.6365383, "lat": 44.3054392 },
  { "city": "Folsogno", "lng": 8.5501485, "lat": 46.1343084 },
  { "city": "Sauris di Sotto", "lng": 12.7087174, "lat": 46.4653657 },
  { "city": "Sant'Agata", "lng": 8.6857185, "lat": 46.0708888 },
  { "city": "Dosson", "lng": 12.2513451, "lat": 45.635443 },
  { "city": "Marina di Ravenna", "lng": 12.2788139, "lat": 44.4851718 },
  { "city": "Pari", "lng": 11.3208017, "lat": 43.0634169 },
  { "city": "Firenze", "lng": 11.2555757, "lat": 43.7698712 },
  { "city": "Arezzo", "lng": 11.8781675, "lat": 43.4628957 },
  { "city": "Grosseto", "lng": 11.1137389, "lat": 42.7597261 },
  { "city": "Massa", "lng": 10.1395519, "lat": 44.0359323 },
  { "city": "Pistoia", "lng": 10.9174238, "lat": 43.9336213 },
  { "city": "Prato", "lng": 11.0969262, "lat": 43.880598 },
  { "city": "Siena", "lng": 11.3316533, "lat": 43.3185536 },
  { "city": "Castel Focognano", "lng": 11.7884391, "lat": 43.6540276 },
  { "city": "Cavriglia", "lng": 11.4889722, "lat": 43.5218737 },
  { "city": "Marciano della Chiana", "lng": 11.7863655, "lat": 43.3052266 },
  { "city": "Montemignaio", "lng": 11.6200117, "lat": 43.7398953 },
  { "city": "Capolona", "lng": 11.8587865, "lat": 43.563998 },
  { "city": "Ortignano Raggiolo", "lng": 11.7480547, "lat": 43.6803426 },
  { "city": "Badia Tedalda", "lng": 12.1848762, "lat": 43.7092081 },
  { "city": "Anghiari", "lng": 12.0545815, "lat": 43.5409662 },
  { "city": "Castiglion Fiorentino", "lng": 11.92378, "lat": 43.341715 },
  { "city": "Caprese Michelangelo", "lng": 11.98484, "lat": 43.639852 },
  { "city": "Cortona", "lng": 11.9850623, "lat": 43.2752976 },
  { "city": "Chitignano", "lng": 11.881338, "lat": 43.662352 },
  { "city": "Laterina", "lng": 11.7102588, "lat": 43.5081823 },
  { "city": "Foiano della Chiana", "lng": 11.8187597, "lat": 43.2524545 },
  { "city": "Pratovecchio", "lng": 11.7228059, "lat": 43.7876351 },
  { "city": "Lucignano", "lng": 11.7459997, "lat": 43.2744629 },
  { "city": "Subbiano", "lng": 11.8703692, "lat": 43.5748479 },
  { "city": "Bucine", "lng": 11.6169754, "lat": 43.479199 },
  { "city": "Bibbiena", "lng": 11.817341, "lat": 43.6955475 },
  { "city": "Chiusi della Verna", "lng": 11.9386322, "lat": 43.6950243 },
  { "city": "Loro Ciuffenna", "lng": 11.6330068, "lat": 43.5922862 },
  { "city": "Castelfranco di Sopra", "lng": 11.5543932, "lat": 43.6212657 },
  { "city": "Castiglion Fibocchi", "lng": 11.7631758, "lat": 43.5279646 },
  { "city": "Montevarchi", "lng": 11.5675911, "lat": 43.5234999 },
  { "city": "Pergine Valdarno", "lng": 11.685736, "lat": 43.470446 },
  { "city": "Monterchi", "lng": 12.1116812, "lat": 43.4856312 },
  { "city": "Monte San Savino", "lng": 11.7253508, "lat": 43.3314232 },
  { "city": "Poppi", "lng": 11.7660695, "lat": 43.7227596 },
  { "city": "Sansepolcro", "lng": 12.1403766, "lat": 43.5700776 },
  { "city": "Pian di Scò", "lng": 11.5466756, "lat": 43.643435 },
  { "city": "Pieve Santo Stefano", "lng": 12.041589, "lat": 43.6693568 },
  { "city": "Talla", "lng": 11.78802, "lat": 43.6015412 },
  { "city": "Terranuova Bracciolini", "lng": 11.5858271, "lat": 43.551208 },
  { "city": "Sestino", "lng": 12.2965336, "lat": 43.7083496 },
  { "city": "Stia", "lng": 11.7067347, "lat": 43.801537 },
  { "city": "Bagno a Ripoli", "lng": 11.3199949, "lat": 43.752172 },
  { "city": "Tavarnelle Val di Pesa", "lng": 11.1730035, "lat": 43.5611665 },
  { "city": "Impruneta", "lng": 11.2546637, "lat": 43.6853454 },
  { "city": "Gambassi Terme", "lng": 10.954075, "lat": 43.5391127 },
  { "city": "Firenzuola", "lng": 11.3792271, "lat": 44.1190791 },
  { "city": "Cerreto Guidi", "lng": 10.879013, "lat": 43.7589215 },
  { "city": "Reggello", "lng": 11.5368965, "lat": 43.6830877 },
  { "city": "Palazzuolo sul Senio", "lng": 11.5477477, "lat": 44.1124753 },
  { "city": "Montespertoli", "lng": 11.0752521, "lat": 43.6436718 },
  { "city": "Londa", "lng": 11.5668116, "lat": 43.8605674 },
  { "city": "San Piero a Sieve", "lng": 11.32442, "lat": 43.961354 },
  { "city": "San Godenzo", "lng": 11.618428, "lat": 43.925556 },
  {
    "city": "San Casciano in Val di Pesa",
    "lng": 11.1856679,
    "lat": 43.6569596
  },
  { "city": "Rignano sull'Arno", "lng": 11.451427, "lat": 43.72105 },
  { "city": "Borgo San Lorenzo", "lng": 11.3864681, "lat": 43.954248 },
  { "city": "Calenzano", "lng": 11.1673685, "lat": 43.8652493 },
  { "city": "Certaldo", "lng": 11.0411987, "lat": 43.5478529 },
  { "city": "Dicomano", "lng": 11.5236505, "lat": 43.8919618 },
  { "city": "Vaglia", "lng": 11.2818138, "lat": 43.9071489 },
  { "city": "Vicchio", "lng": 11.4652902, "lat": 43.9332355 },
  { "city": "Barberino Val d'Elsa", "lng": 11.1714189, "lat": 43.5418625 },
  { "city": "Lastra a Signa", "lng": 11.107215, "lat": 43.770985 },
  { "city": "Marradi", "lng": 11.6128962, "lat": 44.0757376 },
  { "city": "Montaione", "lng": 10.9127727, "lat": 43.5529373 },
  { "city": "Empoli", "lng": 10.9458556, "lat": 43.7194884 },
  { "city": "Fucecchio", "lng": 10.808205, "lat": 43.729202 },
  { "city": "Scarperia", "lng": 11.3550688, "lat": 43.9960778 },
  { "city": "Scandicci", "lng": 11.1847619, "lat": 43.7567104 },
  { "city": "Vinci", "lng": 10.9271055, "lat": 43.7873966 },
  { "city": "Sesto Fiorentino", "lng": 11.1992239, "lat": 43.831721 },
  { "city": "Pelago", "lng": 11.5046302, "lat": 43.7718235 },
  { "city": "Montelupo Fiorentino", "lng": 11.0208768, "lat": 43.7331531 },
  { "city": "Rufina", "lng": 11.4900777, "lat": 43.8266681 },
  { "city": "Pontassieve", "lng": 11.4346286, "lat": 43.7738313 },
  { "city": "Capalbio", "lng": 11.4195148, "lat": 42.4548792 },
  { "city": "Arcidosso", "lng": 11.5387645, "lat": 42.8715131 },
  { "city": "Campi Bisenzio", "lng": 11.1366776, "lat": 43.8216342 },
  { "city": "Signa", "lng": 11.0964527, "lat": 43.7806931 },
  { "city": "Greve in Chianti", "lng": 11.3168731, "lat": 43.5824597 },
  { "city": "Scansano", "lng": 11.335453, "lat": 42.6883687 },
  { "city": "Sorano", "lng": 11.7135722, "lat": 42.6814665 },
  { "city": "Pitigliano", "lng": 11.673549, "lat": 42.634827 },
  { "city": "Manciano", "lng": 11.5159878, "lat": 42.5873361 },
  { "city": "Montieri", "lng": 11.0162788, "lat": 43.1306766 },
  { "city": "Magliano in Toscana", "lng": 11.2917394, "lat": 42.5994416 },
  { "city": "Massa Marittima", "lng": 10.8879707, "lat": 43.0500376 },
  { "city": "Cinigiano", "lng": 11.392892, "lat": 42.8904069 },
  { "city": "Follonica", "lng": 10.761625, "lat": 42.926326 },
  { "city": "Castel del Piano", "lng": 11.5383804, "lat": 42.8932352 },
  { "city": "Castell'Azzara", "lng": 11.699248, "lat": 42.77163 },
  { "city": "Monterotondo Marittimo", "lng": 10.8558338, "lat": 43.145553 },
  { "city": "Campagnatico", "lng": 11.273537, "lat": 42.883729 },
  { "city": "Bibbona", "lng": 10.5972697, "lat": 43.2697843 },
  { "city": "Semproniano", "lng": 11.5403457, "lat": 42.7306583 },
  { "city": "Seggiano", "lng": 11.558242, "lat": 42.928832 },
  { "city": "Roccastrada", "lng": 11.166532, "lat": 43.009931 },
  { "city": "Orbetello", "lng": 11.2107429, "lat": 42.4380944 },
  { "city": "Suvereto", "lng": 10.6786806, "lat": 43.079015 },
  { "city": "San Vincenzo", "lng": 10.5387914, "lat": 43.1006951 },
  { "city": "Portoferraio", "lng": 10.319152, "lat": 42.8136276 },
  { "city": "Piombino", "lng": 10.5268192, "lat": 42.9231662 },
  { "city": "Marciana Marina", "lng": 10.1967676, "lat": 42.8036083 },
  { "city": "Cecina", "lng": 10.5173443, "lat": 43.3113449 },
  { "city": "Capoliveri", "lng": 10.3787797, "lat": 42.7434524 },
  { "city": "Piazza al Serchio", "lng": 10.3009238, "lat": 44.183484 },
  { "city": "San Romano in Garfagnana", "lng": 10.3470507, "lat": 44.1696692 },
  { "city": "Barga", "lng": 10.484263, "lat": 44.0739178 },
  { "city": "Vagli Sotto", "lng": 10.288795, "lat": 44.109248 },
  { "city": "Camaiore", "lng": 10.3039553, "lat": 43.9380611 },
  { "city": "Borgo a Mozzano", "lng": 10.545703, "lat": 43.978948 },
  { "city": "Castagneto Carducci", "lng": 10.6110056, "lat": 43.1607424 },
  { "city": "Marciana", "lng": 10.1685346, "lat": 42.7894222 },
  { "city": "Collesalvetti", "lng": 10.476264, "lat": 43.588912 },
  { "city": "Rio Marina", "lng": 10.426219, "lat": 42.81342 },
  { "city": "Porto Azzurro", "lng": 10.3957529, "lat": 42.7662978 },
  { "city": "Rosignano Marittimo", "lng": 10.4733663, "lat": 43.406786 },
  { "city": "Rio nell'Elba", "lng": 10.4012151, "lat": 42.8131238 },
  { "city": "Pieve Fosciana", "lng": 10.4107974, "lat": 44.1322698 },
  { "city": "Seravezza", "lng": 10.2257715, "lat": 43.994721 },
  { "city": "Viareggio", "lng": 10.2506055, "lat": 43.8672392 },
  { "city": "Altopascio", "lng": 10.6743961, "lat": 43.8150413 },
  { "city": "Bagni di Lucca", "lng": 10.590633, "lat": 44.0099818 },
  { "city": "Camporgiano", "lng": 10.3351514, "lat": 44.1580565 },
  { "city": "Careggine", "lng": 10.325396, "lat": 44.119949 },
  { "city": "Capannori", "lng": 10.5735254, "lat": 43.8420391 },
  { "city": "Castiglione di Garfagnana", "lng": 10.410897, "lat": 44.14995 },
  { "city": "Coreglia Antelminelli", "lng": 10.525509, "lat": 44.0636526 },
  { "city": "Massarosa", "lng": 10.3397157, "lat": 43.8676499 },
  { "city": "Minucciano", "lng": 10.207592, "lat": 44.170449 },
  { "city": "Montecarlo", "lng": 10.6676214, "lat": 43.8511862 },
  { "city": "Pescaglia", "lng": 10.4111, "lat": 43.966246 },
  { "city": "Montignoso", "lng": 10.1725909, "lat": 44.0240497 },
  { "city": "Villa Collemandina", "lng": 10.3977419, "lat": 44.1587592 },
  { "city": "Villa Basilica", "lng": 10.644575, "lat": 43.9275158 },
  { "city": "Bagnone", "lng": 9.9946555, "lat": 44.3147394 },
  { "city": "Tresana", "lng": 9.912885, "lat": 44.254248 },
  { "city": "Zeri", "lng": 9.7632999, "lat": 44.3537185 },
  { "city": "Podenzana", "lng": 9.941986, "lat": 44.206248 },
  { "city": "Fosciandora", "lng": 10.4594887, "lat": 44.1164763 },
  { "city": "Forte dei Marmi", "lng": 10.1699392, "lat": 43.9595891 },
  { "city": "Fabbriche di Vallico", "lng": 10.4281154, "lat": 43.9971915 },
  { "city": "Castelnuovo di Garfagnana", "lng": 10.4117858, "lat": 44.110022 },
  { "city": "Sillano", "lng": 10.3023885, "lat": 44.2224475 },
  { "city": "Pietrasanta", "lng": 10.2332031, "lat": 43.9589031 },
  { "city": "Molazzana", "lng": 10.417799, "lat": 44.071749 },
  { "city": "Gallicano", "lng": 10.435668, "lat": 44.0606512 },
  { "city": "Villafranca in Lunigiana", "lng": 9.9496556, "lat": 44.2946703 },
  { "city": "Montopoli in Val d'Arno", "lng": 10.7608316, "lat": 43.6702986 },
  { "city": "Mulazzo", "lng": 9.8896261, "lat": 44.3159261 },
  { "city": "Pontremoli", "lng": 9.878882, "lat": 44.375151 },
  { "city": "Capannoli", "lng": 10.6744566, "lat": 43.5867314 },
  { "city": "Casciana Terme", "lng": 10.618212, "lat": 43.527338 },
  { "city": "Bientina", "lng": 10.6203207, "lat": 43.7101845 },
  { "city": "Fivizzano", "lng": 10.12599, "lat": 44.23835 },
  { "city": "Fosdinovo", "lng": 10.018869, "lat": 44.13382 },
  { "city": "Casola in Lunigiana", "lng": 10.1754596, "lat": 44.1999608 },
  { "city": "Filattiera", "lng": 9.934823, "lat": 44.3307913 },
  { "city": "Licciana Nardi", "lng": 10.0381722, "lat": 44.2648672 },
  { "city": "Aulla", "lng": 9.967787, "lat": 44.214548 },
  { "city": "Carrara", "lng": 10.096726, "lat": 44.0771026 },
  { "city": "Calci", "lng": 10.5152807, "lat": 43.725799 },
  { "city": "Buti", "lng": 10.5877174, "lat": 43.7273019 },
  { "city": "Casale Marittimo", "lng": 10.6153077, "lat": 43.297061 },
  { "city": "Santa Croce sull'Arno", "lng": 10.7819415, "lat": 43.7101077 },
  { "city": "Riparbella", "lng": 10.5995286, "lat": 43.3646248 },
  { "city": "Volterra", "lng": 10.860019, "lat": 43.400337 },
  { "city": "Santa Luce", "lng": 10.563512, "lat": 43.472336 },
  { "city": "Palaia", "lng": 10.772014, "lat": 43.605041 },
  { "city": "Montescudaio", "lng": 10.6269946, "lat": 43.3262785 },
  { "city": "Pontedera", "lng": 10.6354851, "lat": 43.6634536 },
  { "city": "Guardistallo", "lng": 10.6328398, "lat": 43.3127077 },
  { "city": "Castellina Marittima", "lng": 10.5761772, "lat": 43.4125688 },
  { "city": "Montecatini Val di Cecina", "lng": 10.7490933, "lat": 43.3928165 },
  { "city": "Lari", "lng": 10.592001, "lat": 43.5660167 },
  { "city": "San Miniato", "lng": 10.8500949, "lat": 43.6797502 },
  { "city": "Santa Maria a Monte", "lng": 10.6929976, "lat": 43.6980639 },
  { "city": "Terricciola", "lng": 10.680114, "lat": 43.524738 },
  { "city": "Vecchiano", "lng": 10.384403, "lat": 43.783342 },
  { "city": "Orciano Pisano", "lng": 10.51151, "lat": 43.494436 },
  { "city": "Pomarance", "lng": 10.8724009, "lat": 43.2992367 },
  { "city": "Ponsacco", "lng": 10.6308287, "lat": 43.6207132 },
  { "city": "Fauglia", "lng": 10.514409, "lat": 43.570638 },
  { "city": "Lorenzana", "lng": 10.535052, "lat": 43.5352109 },
  { "city": "Monteverdi Marittimo", "lng": 10.7144314, "lat": 43.1773319 },
  { "city": "Castelfranco di Sotto", "lng": 10.7451778, "lat": 43.6997153 },
  {
    "city": "Castelnuovo di Val di Cecina",
    "lng": 10.9060512,
    "lat": 43.2079982
  },
  { "city": "Chianni", "lng": 10.6423618, "lat": 43.4861205 },
  { "city": "Crespina", "lng": 10.56431, "lat": 43.573039 },
  { "city": "Lamporecchio", "lng": 10.896283, "lat": 43.8163799 },
  { "city": "Agliana", "lng": 11.0033961, "lat": 43.9038155 },
  { "city": "Abetone", "lng": 10.6644636, "lat": 44.1444997 },
  { "city": "Chiesina Uzzanese", "lng": 10.7193421, "lat": 43.8391003 },
  { "city": "Quarrata", "lng": 10.9777009, "lat": 43.8475005 },
  { "city": "Ponte Buggianese", "lng": 10.7475475, "lat": 43.8409347 },
  { "city": "Piteglio", "lng": 10.7657375, "lat": 44.0282307 },
  { "city": "Pieve a Nievole", "lng": 10.7961119, "lat": 43.8791124 },
  { "city": "Pescia", "lng": 10.6897811, "lat": 43.90171 },
  { "city": "Cutigliano", "lng": 10.7557252, "lat": 44.1000536 },
  { "city": "Santa Lucia", "lng": 10.7109, "lat": 43.8826 },
  { "city": "Vicopisano", "lng": 10.5846946, "lat": 43.6998317 },
  { "city": "Asciano", "lng": 11.5594603, "lat": 43.2348573 },
  { "city": "Casole d'Elsa", "lng": 11.042919, "lat": 43.3400968 },
  { "city": "Murlo", "lng": 11.3879245, "lat": 43.1607652 },
  { "city": "Abbadia San Salvatore", "lng": 11.6724203, "lat": 42.8809724 },
  { "city": "Poggio a Caiano", "lng": 11.0546502, "lat": 43.8160891 },
  { "city": "Vaiano", "lng": 11.1240715, "lat": 43.9690119 },
  { "city": "Vernio", "lng": 11.1498804, "lat": 44.0440508 },
  { "city": "Carmignano", "lng": 11.0190297, "lat": 43.8140654 },
  { "city": "Cantagallo", "lng": 11.0797738, "lat": 44.0221929 },
  { "city": "Montemurlo", "lng": 11.0374396, "lat": 43.9269665 },
  { "city": "San Marcello Pistoiese", "lng": 10.7897311, "lat": 44.0560002 },
  { "city": "Serravalle Pistoiese", "lng": 10.8330195, "lat": 43.9058503 },
  { "city": "Montale", "lng": 11.0158786, "lat": 43.9352396 },
  { "city": "Montecatini Terme", "lng": 10.7709533, "lat": 43.883179 },
  { "city": "Marliana", "lng": 10.7692761, "lat": 43.9336995 },
  { "city": "Monsummano Terme", "lng": 10.8140162, "lat": 43.8707438 },
  { "city": "Chianciano Terme", "lng": 11.8284293, "lat": 43.0582549 },
  { "city": "Castiglione d'Orcia", "lng": 11.6155411, "lat": 43.0071166 },
  { "city": "Castelnuovo Berardenga", "lng": 11.5018883, "lat": 43.3455237 },
  { "city": "Buonconvento", "lng": 11.482096, "lat": 43.1381881 },
  { "city": "Monticiano", "lng": 11.1801262, "lat": 43.1396699 },
  { "city": "Montalcino", "lng": 11.4900203, "lat": 43.0610689 },
  { "city": "Gaiole in Chianti", "lng": 11.4342003, "lat": 43.4682951 },
  { "city": "Colle di Val d'Elsa", "lng": 11.126394, "lat": 43.4226455 },
  { "city": "San Giovanni d'Asso", "lng": 11.5900075, "lat": 43.1525692 },
  { "city": "San Casciano dei Bagni", "lng": 11.8749117, "lat": 42.8717035 },
  { "city": "Radicondoli", "lng": 11.0418861, "lat": 43.2611122 },
  { "city": "Radicofani", "lng": 11.7697064, "lat": 42.8965067 },
  { "city": "Trequanda", "lng": 11.6673852, "lat": 43.1889394 },
  { "city": "Chiusdino", "lng": 11.084228, "lat": 43.154634 },
  { "city": "Castellina in Chianti", "lng": 11.2872857, "lat": 43.4691786 },
  { "city": "Monteroni d'Arbia", "lng": 11.4214569, "lat": 43.2310999 },
  { "city": "Piancastagnaio", "lng": 11.6928811, "lat": 42.8489666 },
  { "city": "Montepulciano", "lng": 11.7826795, "lat": 43.0945279 },
  { "city": "Radda in Chianti", "lng": 11.3747003, "lat": 43.4870518 },
  { "city": "Rapolano Terme", "lng": 11.6041365, "lat": 43.2864992 },
  { "city": "San Gimignano", "lng": 11.0432115, "lat": 43.4677993 },
  { "city": "Sinalunga", "lng": 11.7364829, "lat": 43.2121236 },
  {
    "city": "St. Zyprian - San Cipriano",
    "lng": 11.5571182,
    "lat": 46.4715927
  },
  { "city": "Milano", "lng": 9.1896346, "lat": 45.4641943 },
  { "city": "Brescia", "lng": 10.2200214, "lat": 45.5398022 },
  { "city": "Cremona", "lng": 10.0248716, "lat": 45.1334796 },
  { "city": "Lecco", "lng": 9.389605, "lat": 45.8553764 },
  { "city": "Lodi", "lng": 9.503263, "lat": 45.3138959 },
  { "city": "Mantova", "lng": 10.7917191, "lat": 45.1566683 },
  { "city": "Pavia", "lng": 9.1546375, "lat": 45.1860043 },
  { "city": "Sondrio", "lng": 9.8734274, "lat": 46.1713553 },
  { "city": "Varese", "lng": 8.8263532, "lat": 45.817549 },
  { "city": "Bedulita", "lng": 9.55155, "lat": 45.7916524 },
  { "city": "Calcio", "lng": 9.8509786, "lat": 45.5092097 },
  { "city": "Calusco d'Adda", "lng": 9.472649, "lat": 45.691379 },
  { "city": "Calvenzano", "lng": 9.6012863, "lat": 45.4949814 },
  { "city": "Canonica d'Adda", "lng": 9.541653, "lat": 45.575677 },
  { "city": "Carona", "lng": 9.78285, "lat": 46.02139 },
  { "city": "Capriate San Gervasio", "lng": 9.528752, "lat": 45.612578 },
  { "city": "Capizzone", "lng": 9.56775, "lat": 45.784482 },
  { "city": "Carvico", "lng": 9.482249, "lat": 45.703779 },
  { "city": "Carobbio degli Angeli", "lng": 9.829158, "lat": 45.665182 },
  { "city": "Caprino Bergamasco", "lng": 9.481748, "lat": 45.74528 },
  { "city": "Cenate Sotto", "lng": 9.8236884, "lat": 45.6985993 },
  { "city": "Cenate Sopra", "lng": 9.8237131, "lat": 45.7118675 },
  { "city": "Mezzoldo", "lng": 9.664874, "lat": 46.012403 },
  { "city": "Moio de' Calvi", "lng": 9.7002118, "lat": 45.9520028 },
  { "city": "Misano di Gera d'Adda", "lng": 9.621057, "lat": 45.468775 },
  { "city": "Oltre il Colle", "lng": 9.769252, "lat": 45.889487 },
  { "city": "Mozzo", "lng": 9.608652, "lat": 45.69868 },
  { "city": "Osio Sotto", "lng": 9.589053, "lat": 45.616078 },
  { "city": "Ornica", "lng": 9.5794792, "lat": 45.9889712 },
  { "city": "Parzanica", "lng": 10.034515, "lat": 45.7380261 },
  { "city": "Pedrengo", "lng": 9.734955, "lat": 45.695982 },
  { "city": "Palazzago", "lng": 9.5350272, "lat": 45.7521149 },
  { "city": "Palosco", "lng": 9.8356985, "lat": 45.5875491 },
  { "city": "Piario", "lng": 9.927255, "lat": 45.896488 },
  { "city": "Piazzatorre", "lng": 9.6837979, "lat": 45.9897167 },
  { "city": "Peia", "lng": 9.900355, "lat": 45.7997607 },
  { "city": "Pianico", "lng": 10.04306, "lat": 45.809887 },
  { "city": "Ponte Nossa", "lng": 9.8829739, "lat": 45.8660616 },
  { "city": "Ponteranica", "lng": 9.651987, "lat": 45.7320767 },
  { "city": "Piazzolo", "lng": 9.670548, "lat": 45.979788 },
  { "city": "Pognano", "lng": 9.639955, "lat": 45.586378 },
  { "city": "Endine Gaiano", "lng": 9.969058, "lat": 45.792486 },
  { "city": "Fara Olivana", "lng": 9.7490615, "lat": 45.4948443 },
  { "city": "Ponte San Pietro", "lng": 9.5872254, "lat": 45.6977541 },
  { "city": "Predore", "lng": 10.014361, "lat": 45.680784 },
  { "city": "Locatello", "lng": 9.5332605, "lat": 45.8345021 },
  { "city": "Isola di Fondra", "lng": 9.7463873, "lat": 45.9784906 },
  { "city": "Gorno", "lng": 9.8434163, "lat": 45.8628946 },
  { "city": "Foresto Sparso", "lng": 9.920059, "lat": 45.690883 },
  { "city": "San Paolo d'Argon", "lng": 9.8040661, "lat": 45.6885572 },
  { "city": "Oneta", "lng": 9.819354, "lat": 45.871487 },
  { "city": "Oltressenda Alta", "lng": 9.9442319, "lat": 45.9166987 },
  { "city": "Monasterolo del Castello", "lng": 9.931658, "lat": 45.763185 },
  { "city": "Serina", "lng": 9.7293364, "lat": 45.8719407 },
  { "city": "Seriate", "lng": 9.7179982, "lat": 45.6843709 },
  { "city": "Sarnico", "lng": 9.9635127, "lat": 45.6701431 },
  { "city": "San Pellegrino Terme", "lng": 9.6647313, "lat": 45.8386307 },
  { "city": "Tavernola Bergamasca", "lng": 10.046262, "lat": 45.709385 },
  { "city": "Strozza", "lng": 9.57745, "lat": 45.773082 },
  { "city": "Spinone al Lago", "lng": 9.924158, "lat": 45.767485 },
  { "city": "Sovere", "lng": 10.0230979, "lat": 45.8207236 },
  { "city": "Scanzorosciate", "lng": 9.735055, "lat": 45.710782 },
  {
    "city": "Sotto il Monte Giovanni XXIII",
    "lng": 9.4996718,
    "lat": 45.7057753
  },
  { "city": "Taleggio", "lng": 9.5702913, "lat": 45.9183442 },
  { "city": "Ubiale", "lng": 9.619351, "lat": 45.783683 },
  { "city": "Telgate", "lng": 9.851659, "lat": 45.628881 },
  { "city": "Rota d'Imagna", "lng": 9.512792, "lat": 45.8308542 },
  { "city": "Santa Brigida", "lng": 9.6217915, "lat": 45.984547 },
  { "city": "Sant'Omobono Terme", "lng": 9.5359629, "lat": 45.8116872 },
  { "city": "Torre de' Roveri", "lng": 9.7735143, "lat": 45.7008221 },
  { "city": "Treviglio", "lng": 9.5931485, "lat": 45.5217245 },
  { "city": "Valleve", "lng": 9.7439467, "lat": 46.026862 },
  { "city": "Valnegra", "lng": 9.6900185, "lat": 45.9494102 },
  { "city": "Valbondione", "lng": 10.005855, "lat": 46.034193 },
  { "city": "Valbrembo", "lng": 9.6075364, "lat": 45.717833 },
  { "city": "Valgoglio", "lng": 9.913554, "lat": 45.97489 },
  { "city": "Torre Boldone", "lng": 9.7081894, "lat": 45.7162722 },
  { "city": "Vigano San Martino", "lng": 9.8939905, "lat": 45.7265314 },
  { "city": "Viadanica", "lng": 9.9622843, "lat": 45.6843417 },
  { "city": "Villa di Serio", "lng": 9.7323783, "lat": 45.722665 },
  { "city": "Villa d'Almè", "lng": 9.614451, "lat": 45.749682 },
  { "city": "Valtorta", "lng": 9.534945, "lat": 45.977787 },
  { "city": "Vilminore di Scalve", "lng": 10.0924803, "lat": 45.9976748 },
  { "city": "Vertova", "lng": 9.8535071, "lat": 45.8102188 },
  { "city": "Verdellino", "lng": 9.6156095, "lat": 45.6031356 },
  { "city": "Almenno San Bartolomeo", "lng": 9.582251, "lat": 45.742681 },
  { "city": "Albino", "lng": 9.7969489, "lat": 45.760661 },
  { "city": "Ambivere", "lng": 9.55015, "lat": 45.71958 },
  { "city": "Alzano Lombardo", "lng": 9.730494, "lat": 45.7336026 },
  { "city": "Costa Serina", "lng": 9.7419373, "lat": 45.8324196 },
  { "city": "Zanica", "lng": 9.6841257, "lat": 45.6394601 },
  { "city": "Adrara San Rocco", "lng": 9.958705, "lat": 45.7139859 },
  { "city": "Algua", "lng": 9.722152, "lat": 45.826185 },
  { "city": "Borgo di Terzo", "lng": 9.8935702, "lat": 45.7212356 },
  { "city": "Bossico", "lng": 10.045059, "lat": 45.828388 },
  { "city": "Boltiere", "lng": 9.578453, "lat": 45.600878 },
  { "city": "Bonate Sotto", "lng": 9.5613879, "lat": 45.6667845 },
  { "city": "Barbata", "lng": 9.77736, "lat": 45.474977 },
  { "city": "Bianzano", "lng": 9.9208481, "lat": 45.7745025 },
  { "city": "Aviatico", "lng": 9.7716558, "lat": 45.8003072 },
  { "city": "Azzone", "lng": 10.1126472, "lat": 45.9785178 },
  { "city": "Cazzano Sant'Andrea", "lng": 9.8847039, "lat": 45.8127326 },
  { "city": "Chignolo d'Isola", "lng": 9.527651, "lat": 45.667579 },
  { "city": "Casazza", "lng": 9.907258, "lat": 45.749184 },
  { "city": "Brumano", "lng": 9.500547, "lat": 45.855083 },
  { "city": "Brusaporto", "lng": 9.7613544, "lat": 45.6708455 },
  { "city": "Bottanuco", "lng": 9.506451, "lat": 45.639878 },
  { "city": "Brembilla", "lng": 9.5958015, "lat": 45.8220256 },
  { "city": "Covo", "lng": 9.7701068, "lat": 45.5003219 },
  { "city": "Costa di Mezzate", "lng": 9.793957, "lat": 45.661981 },
  { "city": "Corna Imagna", "lng": 9.544848, "lat": 45.830683 },
  { "city": "Comun Nuovo", "lng": 9.6631272, "lat": 45.6229111 },
  { "city": "Colzate", "lng": 9.8558653, "lat": 45.816027 },
  { "city": "Colere", "lng": 10.082757, "lat": 45.974292 },
  { "city": "Cividate al Piano", "lng": 9.83096, "lat": 45.554879 },
  { "city": "Fonteno", "lng": 10.0202068, "lat": 45.7578026 },
  { "city": "Fiorano al Serio", "lng": 9.8422937, "lat": 45.7998409 },
  { "city": "Filago", "lng": 9.556352, "lat": 45.637578 },
  { "city": "Fara Gera d'Adda", "lng": 9.537853, "lat": 45.555676 },
  { "city": "Entratico", "lng": 9.8746256, "lat": 45.7056148 },
  { "city": "Dalmine", "lng": 9.6060129, "lat": 45.6525039 },
  { "city": "Cusio", "lng": 9.6018874, "lat": 45.9907873 },
  { "city": "Curno", "lng": 9.6109659, "lat": 45.6915142 },
  { "city": "Gromo", "lng": 9.927054, "lat": 45.96399 },
  { "city": "Gorlago", "lng": 9.8270544, "lat": 45.6767028 },
  { "city": "Lallio", "lng": 9.630053, "lat": 45.66638 },
  { "city": "Grumello del Monte", "lng": 9.876759, "lat": 45.637181 },
  { "city": "Lenna", "lng": 9.6786963, "lat": 45.9439828 },
  { "city": "Leffe", "lng": 9.885456, "lat": 45.800686 },
  { "city": "Madone", "lng": 9.5479634, "lat": 45.6499571 },
  { "city": "Lovere", "lng": 10.0752136, "lat": 45.8168815 },
  { "city": "Fornovo San Giovanni", "lng": 9.6769058, "lat": 45.4979249 },
  { "city": "Foppolo", "lng": 9.7511844, "lat": 46.0437409 },
  { "city": "Fuipiano Valle Imagna", "lng": 9.528447, "lat": 45.854284 },
  { "city": "Gazzaniga", "lng": 9.8349553, "lat": 45.7966425 },
  { "city": "Gaverina Terme", "lng": 9.886657, "lat": 45.755784 },
  { "city": "Ghisalba", "lng": 9.753914, "lat": 45.5941934 },
  { "city": "Gerosa", "lng": 9.5708362, "lat": 45.8499496 },
  { "city": "Almenno San Salvatore", "lng": 9.5963684, "lat": 45.7499556 },
  { "city": "Antegnate", "lng": 9.79146, "lat": 45.486477 },
  { "city": "Arcene", "lng": 9.614054, "lat": 45.575577 },
  { "city": "Ardesio", "lng": 9.931158, "lat": 45.9375116 },
  { "city": "Arzago d'Adda", "lng": 9.5616783, "lat": 45.4815134 },
  { "city": "Averara", "lng": 9.6313982, "lat": 45.9886802 },
  { "city": "Azzano San Paolo", "lng": 9.6751805, "lat": 45.6610392 },
  { "city": "Bagnatica", "lng": 9.781057, "lat": 45.660881 },
  { "city": "Mapello", "lng": 9.5475128, "lat": 45.7089647 },
  { "city": "Premolo", "lng": 9.874655, "lat": 45.870187 },
  { "city": "Presezzo", "lng": 9.570351, "lat": 45.69208 },
  { "city": "Riva di Solto", "lng": 10.0393427, "lat": 45.7735702 },
  { "city": "San Giovanni Bianco", "lng": 9.653022, "lat": 45.8740752 },
  { "city": "Adrara San Martino", "lng": 9.9489353, "lat": 45.6999454 },
  { "city": "Albano Sant'Alessandro", "lng": 9.770656, "lat": 45.686482 },
  { "city": "Almè", "lng": 9.614785, "lat": 45.7370097 },
  { "city": "Cologno al Serio", "lng": 9.7077253, "lat": 45.5797721 },
  { "city": "Clusone", "lng": 9.949656, "lat": 45.887088 },
  { "city": "Cisano Bergamasco", "lng": 9.470248, "lat": 45.74248 },
  { "city": "Chiuduno", "lng": 9.8480158, "lat": 45.6508189 },
  { "city": "Credaro", "lng": 9.93106, "lat": 45.660582 },
  { "city": "Costa Volpino", "lng": 10.098161, "lat": 45.829888 },
  { "city": "Cortenuova", "lng": 9.787859, "lat": 45.538978 },
  { "city": "Berzo San Fermo", "lng": 9.903158, "lat": 45.719384 },
  { "city": "Berbenno", "lng": 9.571049, "lat": 45.814783 },
  { "city": "Barzana", "lng": 9.5672642, "lat": 45.7339859 },
  { "city": "Bariano", "lng": 9.7049249, "lat": 45.5126464 },
  { "city": "Cene", "lng": 9.8254604, "lat": 45.7836703 },
  { "city": "Cavernago", "lng": 9.7616399, "lat": 45.625097 },
  { "city": "Castro", "lng": 10.06706, "lat": 45.802987 },
  { "city": "Bolgare", "lng": 9.812858, "lat": 45.635081 },
  { "city": "Lurano", "lng": 9.640155, "lat": 45.565677 },
  { "city": "Luzzana", "lng": 9.880496, "lat": 45.7163928 },
  { "city": "Isso", "lng": 9.7585339, "lat": 45.4768363 },
  { "city": "Levate", "lng": 9.624154, "lat": 45.625179 },
  { "city": "Morengo", "lng": 9.7052776, "lat": 45.5336039 },
  { "city": "Mornico al Serio", "lng": 9.809259, "lat": 45.59138 },
  { "city": "Martinengo", "lng": 9.767376, "lat": 45.5703685 },
  { "city": "Montello", "lng": 9.805657, "lat": 45.672082 },
  { "city": "Fontanella", "lng": 9.801961, "lat": 45.469877 },
  { "city": "Gandino", "lng": 9.9031182, "lat": 45.8115328 },
  { "city": "Dossena", "lng": 9.696751, "lat": 45.880286 },
  { "city": "Fino del Monte", "lng": 9.9926194, "lat": 45.8903679 },
  { "city": "Grassobbio", "lng": 9.7231068, "lat": 45.6572304 },
  { "city": "Grone", "lng": 9.9112023, "lat": 45.727504 },
  { "city": "Gandosso", "lng": 9.888859, "lat": 45.658882 },
  { "city": "Gorle", "lng": 9.7190224, "lat": 45.7037349 },
  { "city": "Sorisole", "lng": 9.6611952, "lat": 45.7445793 },
  { "city": "Songavazzo", "lng": 9.9897924, "lat": 45.8801495 },
  { "city": "Stezzano", "lng": 9.6535097, "lat": 45.6513805 },
  { "city": "Spirano", "lng": 9.668856, "lat": 45.582078 },
  { "city": "Sedrina", "lng": 9.624051, "lat": 45.781783 },
  { "city": "Schilpario", "lng": 10.1565735, "lat": 46.0089271 },
  { "city": "Solto Collina", "lng": 10.0252033, "lat": 45.7817845 },
  { "city": "Selvino", "lng": 9.7516751, "lat": 45.7811435 },
  { "city": "Roncobello", "lng": 9.75235, "lat": 45.955688 },
  { "city": "Romano di Lombardia", "lng": 9.7550869, "lat": 45.5183761 },
  { "city": "Rovetta", "lng": 9.983457, "lat": 45.892989 },
  { "city": "Roncola", "lng": 9.5612978, "lat": 45.7680066 },
  { "city": "Nembro", "lng": 9.7592752, "lat": 45.7439737 },
  { "city": "Mozzanica", "lng": 9.689258, "lat": 45.476076 },
  { "city": "Rogno", "lng": 10.133545, "lat": 45.857665 },
  { "city": "Ranzanico", "lng": 9.9357249, "lat": 45.7892293 },
  { "city": "Zandobbio", "lng": 9.853358, "lat": 45.687882 },
  { "city": "Zogno", "lng": 9.666203, "lat": 45.7937056 },
  { "city": "Cornalba", "lng": 9.7432339, "lat": 45.8517289 },
  { "city": "Blello", "lng": 9.571049, "lat": 45.837784 },
  { "city": "Vigolo", "lng": 10.0227167, "lat": 45.7157754 },
  { "city": "Villa d'Adda", "lng": 9.461649, "lat": 45.71398 },
  { "city": "Villa d'Ogna", "lng": 9.930855, "lat": 45.904689 },
  { "city": "Villongo", "lng": 9.9338341, "lat": 45.6730421 },
  { "city": "Urgnano", "lng": 9.6948557, "lat": 45.5971972 },
  { "city": "Valsecca", "lng": 9.495347, "lat": 45.827283 },
  { "city": "Vedeseta", "lng": 9.5400571, "lat": 45.8908697 },
  { "city": "Verdello", "lng": 9.6273969, "lat": 45.6065784 },
  { "city": "Suisio", "lng": 9.5001537, "lat": 45.6559017 },
  { "city": "Terno d'Isola", "lng": 9.530951, "lat": 45.685479 },
  { "city": "Trescore Balneario", "lng": 9.842557, "lat": 45.696483 },
  { "city": "Treviolo", "lng": 9.6117418, "lat": 45.6715427 },
  { "city": "Olmo al Brembo", "lng": 9.6486492, "lat": 45.9696756 },
  { "city": "Torre", "lng": 9.877063, "lat": 45.446377 },
  { "city": "Castel Rozzone", "lng": 9.619855, "lat": 45.552277 },
  { "city": "Cassiglio", "lng": 9.612147, "lat": 45.966787 },
  { "city": "Casnigo", "lng": 9.8681406, "lat": 45.8159118 },
  { "city": "Casirate d'Adda", "lng": 9.5678078, "lat": 45.4941243 },
  { "city": "Caravaggio", "lng": 9.6437404, "lat": 45.4972605 },
  { "city": "Camerata Cornello", "lng": 9.656349, "lat": 45.898686 },
  { "city": "Calcinate", "lng": 9.7988771, "lat": 45.619721 },
  { "city": "Brignano Gera d'Adda", "lng": 9.6489533, "lat": 45.5455191 },
  { "city": "Brembate di Sopra", "lng": 9.5794156, "lat": 45.716763 },
  { "city": "Brembate", "lng": 9.5555981, "lat": 45.6039279 },
  { "city": "Branzi", "lng": 9.7599743, "lat": 46.0053774 },
  { "city": "Bracca", "lng": 9.7078713, "lat": 45.8238863 },
  { "city": "Bonate Sopra", "lng": 9.559751, "lat": 45.68338 },
  { "city": "Berzo Demo", "lng": 10.336266, "lat": 46.0934179 },
  { "city": "Medolago", "lng": 9.49565, "lat": 45.668579 },
  { "city": "Solza", "lng": 9.4889369, "lat": 45.6771433 },
  { "city": "Pumenengo", "lng": 9.8701285, "lat": 45.479947 },
  { "city": "Ranica", "lng": 9.7146629, "lat": 45.7263379 },
  { "city": "Pontirolo Nuovo", "lng": 9.5693448, "lat": 45.5691748 },
  { "city": "Pradalunga", "lng": 9.7831294, "lat": 45.7467328 },
  { "city": "Piazza Brembana", "lng": 9.675623, "lat": 45.9477858 },
  { "city": "Pontida", "lng": 9.4986417, "lat": 45.7323112 },
  { "city": "Parre", "lng": 9.890855, "lat": 45.874587 },
  { "city": "Osio Sopra", "lng": 9.5910634, "lat": 45.6307873 },
  { "city": "Pagazzano", "lng": 9.671157, "lat": 45.534277 },
  { "city": "Onore", "lng": 10.0099362, "lat": 45.891169 },
  { "city": "Orio al Serio", "lng": 9.6929555, "lat": 45.6762274 },
  { "city": "Ceto", "lng": 10.351963, "lat": 46.002595 },
  { "city": "Lumezzane", "lng": 10.2645464, "lat": 45.6482576 },
  { "city": "Coccaglio", "lng": 9.9782721, "lat": 45.5634485 },
  { "city": "Cividate Camuno", "lng": 10.277462, "lat": 45.942493 },
  { "city": "Cigole", "lng": 10.1893747, "lat": 45.3086363 },
  { "city": "Chiari", "lng": 9.928846, "lat": 45.5364624 },
  { "city": "Darfo Boario Terme", "lng": 10.1807068, "lat": 45.8834863 },
  { "city": "Corteno Golgi", "lng": 10.243457, "lat": 46.166198 },
  { "city": "Cologne", "lng": 9.9411725, "lat": 45.5815203 },
  { "city": "Collebeato", "lng": 10.2102711, "lat": 45.5813147 },
  { "city": "Flero", "lng": 10.1750082, "lat": 45.4828867 },
  { "city": "Erbusco", "lng": 9.9722164, "lat": 45.5984995 },
  { "city": "Desenzano del Garda", "lng": 10.5389467, "lat": 45.4694851 },
  { "city": "Acquafredda", "lng": 10.414677, "lat": 45.307378 },
  { "city": "Agnosine", "lng": 10.3533352, "lat": 45.650676 },
  { "city": "Bione", "lng": 10.338869, "lat": 45.672786 },
  { "city": "Brione", "lng": 10.1461559, "lat": 45.6429228 },
  { "city": "Artogne", "lng": 10.1645561, "lat": 45.8489819 },
  { "city": "Bagolino", "lng": 10.4627308, "lat": 45.8235613 },
  { "city": "Alfianello", "lng": 10.148172, "lat": 45.266975 },
  { "city": "Angolo Terme", "lng": 10.1460986, "lat": 45.8910363 },
  { "city": "Cizzago", "lng": 9.948005, "lat": 45.4724011 },
  { "city": "Corte Franca", "lng": 10.0064681, "lat": 45.6374172 },
  { "city": "Barghe", "lng": 10.41217, "lat": 45.681887 },
  { "city": "Berlingo", "lng": 10.043665, "lat": 45.50298 },
  { "city": "Idro", "lng": 10.4783256, "lat": 45.7377454 },
  { "city": "Lodrino", "lng": 10.277667, "lat": 45.719687 },
  { "city": "Gavardo", "lng": 10.438237, "lat": 45.5846274 },
  { "city": "Gussago", "lng": 10.15345, "lat": 45.5926638 },
  { "city": "Marcheno", "lng": 10.2153259, "lat": 45.709374 },
  { "city": "Manerbio", "lng": 10.13517, "lat": 45.355777 },
  { "city": "Moniga del Garda", "lng": 10.5375734, "lat": 45.528523 },
  { "city": "Milzano", "lng": 10.199273, "lat": 45.273575 },
  { "city": "Ome", "lng": 10.1239054, "lat": 45.6243132 },
  { "city": "Mura", "lng": 10.3436499, "lat": 45.7139802 },
  { "city": "Orzivecchi", "lng": 9.9617289, "lat": 45.4206595 },
  { "city": "Orzinuovi", "lng": 9.921564, "lat": 45.403976 },
  { "city": "Paderno Franciacorta", "lng": 10.076411, "lat": 45.5891866 },
  { "city": "Padenghe sul Garda", "lng": 10.506376, "lat": 45.509584 },
  { "city": "San Paolo", "lng": 10.026767, "lat": 45.370576 },
  { "city": "Passirano", "lng": 10.0649179, "lat": 45.599487 },
  { "city": "Polpenazze del Garda", "lng": 10.504875, "lat": 45.551185 },
  { "city": "Pisogne", "lng": 10.1081901, "lat": 45.8057312 },
  { "city": "Ponte di Legno", "lng": 10.508662, "lat": 46.258603 },
  { "city": "Pompiano", "lng": 9.989265, "lat": 45.431977 },
  { "city": "Gambara", "lng": 10.2934106, "lat": 45.2552458 },
  { "city": "Gardone Val Trompia", "lng": 10.1837244, "lat": 45.6879136 },
  { "city": "Gargnano", "lng": 10.6635006, "lat": 45.688138 },
  { "city": "Ghedi", "lng": 10.2768169, "lat": 45.4015124 },
  { "city": "Gottolengo", "lng": 10.2698286, "lat": 45.2910328 },
  { "city": "Incudine", "lng": 10.358759, "lat": 46.2203 },
  { "city": "Irma", "lng": 10.2841681, "lat": 45.7713171 },
  { "city": "Iseo", "lng": 10.0510489, "lat": 45.6595554 },
  { "city": "Isorella", "lng": 10.3221777, "lat": 45.3091728 },
  { "city": "Mazzano", "lng": 10.3541615, "lat": 45.518804 },
  { "city": "Lograto", "lng": 10.0532758, "lat": 45.4842379 },
  { "city": "Longhena", "lng": 10.059667, "lat": 45.437678 },
  { "city": "Losine", "lng": 10.316163, "lat": 45.983494 },
  { "city": "Magasa", "lng": 10.615973, "lat": 45.781392 },
  { "city": "Malegno", "lng": 10.2733393, "lat": 45.9506025 },
  { "city": "Malonno", "lng": 10.3192116, "lat": 46.122581 },
  { "city": "Paisco", "lng": 10.2925497, "lat": 46.0790576 },
  { "city": "Ossimo", "lng": 10.230561, "lat": 45.946192 },
  { "city": "Muscoline", "lng": 10.461874, "lat": 45.562485 },
  { "city": "Monticelli Brusati", "lng": 10.0985704, "lat": 45.6321897 },
  { "city": "Marmentino", "lng": 10.2873147, "lat": 45.75545 },
  { "city": "Vione", "lng": 10.447161, "lat": 46.248402 },
  { "city": "Villa Carcina", "lng": 10.1944422, "lat": 45.632214 },
  { "city": "Provaglio Val Sabbia", "lng": 10.4366014, "lat": 45.6848636 },
  { "city": "Provaglio d'Iseo", "lng": 10.0443096, "lat": 45.6359819 },
  { "city": "Preseglie", "lng": 10.39677, "lat": 45.668287 },
  { "city": "Pezzaze", "lng": 10.2373771, "lat": 45.7741272 },
  { "city": "Pertica Bassa", "lng": 10.3746705, "lat": 45.7544894 },
  { "city": "Pertica Alta", "lng": 10.3439356, "lat": 45.7444018 },
  { "city": "San Felice del Benaco", "lng": 10.5517327, "lat": 45.5895461 },
  { "city": "San Gervasio Bresciano", "lng": 10.148671, "lat": 45.307376 },
  { "city": "Roccafranca", "lng": 9.9140564, "lat": 45.4642998 },
  { "city": "Sabbio Chiese", "lng": 10.420571, "lat": 45.658587 },
  { "city": "Prevalle", "lng": 10.421857, "lat": 45.5514816 },
  { "city": "Rezzato", "lng": 10.3168627, "lat": 45.5142403 },
  { "city": "Pozzolengo", "lng": 10.6313729, "lat": 45.4059696 },
  { "city": "Prestine", "lng": 10.3103078, "lat": 45.9308588 },
  { "city": "Verolanuova", "lng": 10.0760863, "lat": 45.3285814 },
  { "city": "Vezza d'Oglio", "lng": 10.3997325, "lat": 46.2402134 },
  { "city": "Travagliato", "lng": 10.0797833, "lat": 45.5239055 },
  { "city": "Urago d'Oglio", "lng": 9.869661, "lat": 45.515978 },
  { "city": "Sulzano", "lng": 10.100963, "lat": 45.690385 },
  { "city": "Sarezzo", "lng": 10.1958762, "lat": 45.6618702 },
  { "city": "Serle", "lng": 10.366071, "lat": 45.570284 },
  { "city": "Casto", "lng": 10.3212431, "lat": 45.6945498 },
  { "city": "Castenedolo", "lng": 10.29831, "lat": 45.4715763 },
  { "city": "Lavenone", "lng": 10.43907, "lat": 45.739689 },
  { "city": "Braone", "lng": 10.3431903, "lat": 45.9900343 },
  { "city": "Botticino Sera", "lng": 10.301871, "lat": 45.535983 },
  { "city": "Bovegno", "lng": 10.2737559, "lat": 45.7933072 },
  { "city": "Borgo San Giacomo", "lng": 9.968467, "lat": 45.346975 },
  { "city": "Brandico", "lng": 10.052666, "lat": 45.454178 },
  { "city": "Bovezzo", "lng": 10.2434802, "lat": 45.5931372 },
  { "city": "Bagnolo Mella", "lng": 10.18437, "lat": 45.429079 },
  { "city": "Limone sul Garda", "lng": 10.7915786, "lat": 45.8141194 },
  { "city": "Bienno", "lng": 10.2947906, "lat": 45.935562 },
  { "city": "Barbariga", "lng": 10.0548109, "lat": 45.4054188 },
  { "city": "Vallio Terme", "lng": 10.3901746, "lat": 45.6101932 },
  { "city": "Turano", "lng": 10.5953562, "lat": 45.760511 },
  { "city": "Rodengo Saiano", "lng": 10.1094679, "lat": 45.5976458 },
  { "city": "Tavernole sul Mella", "lng": 10.240565, "lat": 45.746987 },
  { "city": "Bassano Bresciano", "lng": 10.12837, "lat": 45.327176 },
  { "city": "Berzo Inferiore", "lng": 10.2805867, "lat": 45.931693 },
  { "city": "Borgosatollo", "lng": 10.2407451, "lat": 45.4771995 },
  { "city": "Borno", "lng": 10.2064036, "lat": 45.9473303 },
  { "city": "Piancogno", "lng": 10.225262, "lat": 45.919692 },
  { "city": "Roè Volciano", "lng": 10.4958703, "lat": 45.6167638 },
  { "city": "Saviore dell'Adamello", "lng": 10.399663, "lat": 46.080497 },
  { "city": "Soiano del Lago", "lng": 10.512675, "lat": 45.527784 },
  { "city": "Lonato del Garda", "lng": 10.4845346, "lat": 45.4610389 },
  { "city": "Maclodio", "lng": 10.0427148, "lat": 45.4769983 },
  { "city": "Gianico", "lng": 10.1836526, "lat": 45.8645299 },
  { "city": "Leno", "lng": 10.2184518, "lat": 45.3670119 },
  { "city": "Monno", "lng": 10.3398783, "lat": 46.2115706 },
  { "city": "Montichiari", "lng": 10.390675, "lat": 45.415181 },
  { "city": "Mairano", "lng": 10.079567, "lat": 45.449179 },
  { "city": "Marone", "lng": 10.093762, "lat": 45.736086 },
  { "city": "Concesio", "lng": 10.216967, "lat": 45.605184 },
  { "city": "Corzano", "lng": 10.0079911, "lat": 45.4438105 },
  { "city": "Cimbergo", "lng": 10.365663, "lat": 46.024096 },
  { "city": "Collio", "lng": 10.3328723, "lat": 45.8093124 },
  { "city": "Fiesse", "lng": 10.324177, "lat": 45.231475 },
  { "city": "Gardone Riviera", "lng": 10.5591005, "lat": 45.6187853 },
  { "city": "Edolo", "lng": 10.3307572, "lat": 46.1793752 },
  { "city": "Esine", "lng": 10.2508308, "lat": 45.9258392 },
  { "city": "Castrezzato", "lng": 9.977855, "lat": 45.5125048 },
  { "city": "Castegnato", "lng": 10.1153088, "lat": 45.5607142 },
  { "city": "Carpenedolo", "lng": 10.4293846, "lat": 45.3646065 },
  { "city": "Capriolo", "lng": 9.9336046, "lat": 45.6372565 },
  { "city": "Cevo", "lng": 10.368562, "lat": 46.081397 },
  { "city": "Cerveno", "lng": 10.3257912, "lat": 46.0025085 },
  { "city": "Cellatica", "lng": 10.1802449, "lat": 45.5841062 },
  { "city": "Cazzago San Martino", "lng": 10.0262148, "lat": 45.580508 },
  { "city": "Calvagese della Riviera", "lng": 10.4456864, "lat": 45.5400742 },
  { "city": "Calcinato", "lng": 10.413574, "lat": 45.457182 },
  { "city": "Caino", "lng": 10.3150854, "lat": 45.6126766 },
  { "city": "Breno", "lng": 10.3040404, "lat": 45.9563241 },
  { "city": "Capriano del Colle", "lng": 10.1303478, "lat": 45.4548691 },
  { "city": "Capovalle", "lng": 10.54469, "lat": 45.7544353 },
  { "city": "Capo di Ponte", "lng": 10.345862, "lat": 46.030996 },
  { "city": "Calvisano", "lng": 10.345921, "lat": 45.3480525 },
  { "city": "Seniga", "lng": 10.177973, "lat": 45.242674 },
  { "city": "Sonico", "lng": 10.35286, "lat": 46.165499 },
  { "city": "Temù", "lng": 10.46805, "lat": 46.2492143 },
  { "city": "Torbole", "lng": 10.115467, "lat": 45.512581 },
  { "city": "Trenzano", "lng": 10.010665, "lat": 45.477279 },
  { "city": "Verolavecchia", "lng": 10.0572562, "lat": 45.3270123 },
  { "city": "Vestone", "lng": 10.4042112, "lat": 45.7106124 },
  { "city": "Villachiara", "lng": 9.930966, "lat": 45.355375 },
  { "city": "Quinzano d'Oglio", "lng": 10.008568, "lat": 45.310875 },
  { "city": "Roncadelle", "lng": 10.1497012, "lat": 45.5276081 },
  { "city": "Rovato", "lng": 9.9986008, "lat": 45.5670385 },
  { "city": "Rudiano", "lng": 9.887062, "lat": 45.488578 },
  { "city": "Sale Marasino", "lng": 10.1111391, "lat": 45.715453 },
  { "city": "Salò", "lng": 10.520069, "lat": 45.6056775 },
  { "city": "San Zeno Naviglio", "lng": 10.2170575, "lat": 45.4915723 },
  { "city": "Sellero", "lng": 10.3439901, "lat": 46.0559889 },
  { "city": "Pavone del Mella", "lng": 10.2084735, "lat": 45.3012594 },
  { "city": "Paspardo", "lng": 10.370963, "lat": 46.030996 },
  { "city": "Polaveno", "lng": 10.123964, "lat": 45.661484 },
  { "city": "Pian Camuno", "lng": 10.1579274, "lat": 45.8437447 },
  { "city": "Pontevico", "lng": 10.092471, "lat": 45.274374 },
  { "city": "Poncarale", "lng": 10.1739092, "lat": 45.4606628 },
  { "city": "Pralboino", "lng": 10.2174131, "lat": 45.2679989 },
  { "city": "Pontoglio", "lng": 9.85346, "lat": 45.56938 },
  { "city": "Nave", "lng": 10.2892353, "lat": 45.5877271 },
  { "city": "Montirone", "lng": 10.228771, "lat": 45.44638 },
  { "city": "Nuvolento", "lng": 10.386772, "lat": 45.545784 },
  { "city": "Niardo", "lng": 10.333263, "lat": 45.975994 },
  { "city": "Odolo", "lng": 10.3884485, "lat": 45.64685 },
  { "city": "Nuvolera", "lng": 10.369172, "lat": 45.532183 },
  { "city": "Paratico", "lng": 9.9550703, "lat": 45.6598764 },
  { "city": "Offlaga", "lng": 10.117457, "lat": 45.3861328 },
  { "city": "Montorfano", "lng": 9.1460789, "lat": 45.7854578 },
  { "city": "Musso", "lng": 9.2763733, "lat": 46.1142559 },
  { "city": "Merone", "lng": 9.2464576, "lat": 45.7878508 },
  { "city": "Borgo", "lng": 9.0989396, "lat": 45.8621038 },
  { "city": "Mariano Comense", "lng": 9.1784276, "lat": 45.6971411 },
  { "city": "Menaggio", "lng": 9.2389513, "lat": 46.0197842 },
  { "city": "Castelnuovo Bozzente", "lng": 8.943536, "lat": 45.764576 },
  { "city": "Castiglione d'Intelvi", "lng": 9.090636, "lat": 45.955082 },
  { "city": "Caslino d'Erba", "lng": 9.2308703, "lat": 45.8375886 },
  { "city": "Casnate", "lng": 9.0728889, "lat": 45.7560279 },
  { "city": "Carbonate", "lng": 8.9400155, "lat": 45.6836574 },
  { "city": "Cadorago", "lng": 9.0382187, "lat": 45.7246094 },
  { "city": "Caglio", "lng": 9.2382683, "lat": 45.8716497 },
  { "city": "Brunate", "lng": 9.0959895, "lat": 45.8194702 },
  { "city": "Bulgarograsso", "lng": 9.006438, "lat": 45.747076 },
  { "city": "Blessagno", "lng": 9.09749, "lat": 45.9595225 },
  { "city": "Bizzarone", "lng": 8.942735, "lat": 45.834278 },
  { "city": "Bellagio", "lng": 9.2613001, "lat": 45.9872549 },
  { "city": "Drezzo", "lng": 8.994836, "lat": 45.815278 },
  { "city": "Palazzolo sull'Oglio", "lng": 9.8849665, "lat": 45.5990687 },
  { "city": "Paitone", "lng": 10.4012548, "lat": 45.553076 },
  { "city": "Ospitaletto", "lng": 10.073946, "lat": 45.5552224 },
  { "city": "Ono San Pietro", "lng": 10.328362, "lat": 46.016895 },
  { "city": "Azzano Mella", "lng": 10.1168233, "lat": 45.454722 },
  { "city": "Anfo", "lng": 10.493771, "lat": 45.76639 },
  { "city": "Adro", "lng": 9.961376, "lat": 45.6224015 },
  { "city": "Vobarno", "lng": 10.499454, "lat": 45.6436432 },
  { "city": "Visano", "lng": 10.372376, "lat": 45.318378 },
  { "city": "Villanuova sul Clisi", "lng": 10.4538721, "lat": 45.6016804 },
  { "city": "Casasco d'Intelvi", "lng": 9.075736, "lat": 45.943682 },
  { "city": "Osteno", "lng": 9.0831114, "lat": 46.0067559 },
  { "city": "Cremia", "lng": 9.2714803, "lat": 46.0872851 },
  { "city": "Bregnano", "lng": 9.0595206, "lat": 45.6971263 },
  { "city": "Campione d'Italia", "lng": 8.971033, "lat": 45.968081 },
  { "city": "Stazzona", "lng": 9.2746824, "lat": 46.1384847 },
  { "city": "Torno", "lng": 9.1162943, "lat": 45.857591 },
  { "city": "Tremezzo", "lng": 9.218538, "lat": 45.983484 },
  { "city": "Veniano", "lng": 8.9830741, "lat": 45.7155801 },
  {
    "city": "San Bartolomeo Val Cavargna",
    "lng": 9.1491275,
    "lat": 46.0834861
  },
  { "city": "San Fermo della Battaglia", "lng": 9.048551, "lat": 45.8084245 },
  { "city": "San Nazzaro Val Cavargna", "lng": 9.127434, "lat": 46.089386 },
  { "city": "Solbiate", "lng": 8.935608, "lat": 45.7892571 },
  { "city": "Rezzago", "lng": 9.249741, "lat": 45.866781 },
  { "city": "Pusiano", "lng": 9.281843, "lat": 45.81388 },
  { "city": "Sala Comacina", "lng": 9.1682856, "lat": 45.9656908 },
  { "city": "Rovellasca", "lng": 9.0543579, "lat": 45.6669014 },
  { "city": "Pigra", "lng": 9.1276954, "lat": 45.9575626 },
  { "city": "Porlezza", "lng": 9.1183915, "lat": 46.0360715 },
  { "city": "Pognana", "lng": 9.1586626, "lat": 45.8783832 },
  { "city": "Ossuccio", "lng": 9.1796245, "lat": 45.9716573 },
  { "city": "Orsenigo", "lng": 9.1811482, "lat": 45.7773453 },
  { "city": "Peglio", "lng": 9.294736, "lat": 46.160389 },
  { "city": "Parè", "lng": 9.0077526, "lat": 45.8108967 },
  { "city": "Santa Maria", "lng": 9.2680952, "lat": 46.064084 },
  { "city": "Nesso", "lng": 9.1571129, "lat": 45.9114218 },
  { "city": "Olgiate Comasco", "lng": 8.9677744, "lat": 45.7853256 },
  { "city": "Novedrate", "lng": 9.1204975, "lat": 45.6989461 },
  { "city": "Lasnigo", "lng": 9.2670887, "lat": 45.8821704 },
  { "city": "Griante", "lng": 9.235538, "lat": 45.995284 },
  { "city": "Laino", "lng": 9.075435, "lat": 45.984483 },
  { "city": "Germasino", "lng": 9.2642499, "lat": 46.1352879 },
  { "city": "Gravedona", "lng": 9.3052568, "lat": 46.1471878 },
  { "city": "Fenegrò", "lng": 8.998617, "lat": 45.7007039 },
  { "city": "Fino Mornasco", "lng": 9.047639, "lat": 45.742876 },
  { "city": "Argegno", "lng": 9.1281646, "lat": 45.9432736 },
  { "city": "Alzate Brianza", "lng": 9.182041, "lat": 45.769778 },
  { "city": "Anzano del Parco", "lng": 9.1993257, "lat": 45.7698325 },
  { "city": "Vertemate", "lng": 9.0722214, "lat": 45.7280202 },
  { "city": "Albiolo", "lng": 8.9392779, "lat": 45.8067961 },
  { "city": "Livo", "lng": 9.30451, "lat": 46.1688448 },
  { "city": "Lomazzo", "lng": 9.0363529, "lat": 45.6984514 },
  { "city": "Colonno", "lng": 9.1555714, "lat": 45.9576023 },
  { "city": "Cirimido", "lng": 9.012539, "lat": 45.699775 },
  { "city": "Cerano d'Intelvi", "lng": 9.088836, "lat": 45.943282 },
  { "city": "Castelmarte", "lng": 9.232703, "lat": 45.833229 },
  { "city": "Cassina Rizzardi", "lng": 9.0311999, "lat": 45.7505496 },
  { "city": "Carugo", "lng": 9.1945741, "lat": 45.709225 },
  { "city": "Carlazzo", "lng": 9.1544999, "lat": 46.0500035 },
  { "city": "Carimate", "lng": 9.110641, "lat": 45.702976 },
  { "city": "Gera Lario", "lng": 9.3718986, "lat": 46.1710994 },
  { "city": "Figino Serenza", "lng": 9.1289394, "lat": 45.7097797 },
  { "city": "Dosso del Liro", "lng": 9.272936, "lat": 46.163989 },
  { "city": "Dizzasco", "lng": 9.099736, "lat": 45.943782 },
  { "city": "Cusino", "lng": 9.1525033, "lat": 46.0745836 },
  { "city": "Mezzegra", "lng": 9.2039657, "lat": 45.9824822 },
  { "city": "Monguzzo", "lng": 9.2325793, "lat": 45.782867 },
  { "city": "Eupilio", "lng": 9.2646735, "lat": 45.8182246 },
  { "city": "Lemna", "lng": 9.159292, "lat": 45.8591679 },
  { "city": "Trezzone", "lng": 9.3514943, "lat": 46.1711426 },
  { "city": "Uggiate", "lng": 8.9602237, "lat": 45.8234205 },
  { "city": "Osigo", "lng": 9.298842, "lat": 45.877382 },
  { "city": "Pellio Superiore", "lng": 9.0588696, "lat": 45.980045 },
  { "city": "Pianello del Lario", "lng": 9.2766331, "lat": 46.1027691 },
  { "city": "Arosio", "lng": 9.208043, "lat": 45.716977 },
  { "city": "Appiano Gentile", "lng": 8.979101, "lat": 45.7346371 },
  { "city": "Cavallasca", "lng": 9.0320306, "lat": 45.8148829 },
  { "city": "Barni", "lng": 9.26514, "lat": 45.911283 },
  { "city": "Alserio", "lng": 9.1995294, "lat": 45.7791026 },
  { "city": "Domaso", "lng": 9.3281424, "lat": 46.1509896 },
  { "city": "Corrido", "lng": 9.1397711, "lat": 46.0458323 },
  { "city": "Erba", "lng": 9.2166985, "lat": 45.8097196 },
  { "city": "Dongo", "lng": 9.2790794, "lat": 46.1229363 },
  { "city": "Cermenate", "lng": 9.0800884, "lat": 45.7000804 },
  { "city": "Cavargna", "lng": 9.111234, "lat": 46.090086 },
  { "city": "Civenna", "lng": 9.2710918, "lat": 45.9367762 },
  { "city": "Cernobbio", "lng": 9.0759048, "lat": 45.8413945 },
  { "city": "Senna Comasco", "lng": 9.11104, "lat": 45.762977 },
  { "city": "Sorico", "lng": 9.3799475, "lat": 46.1722601 },
  { "city": "Rovello Porro", "lng": 9.0403365, "lat": 45.6512477 },
  { "city": "San Fedele Intelvi", "lng": 9.0778776, "lat": 45.9671735 },
  { "city": "Turate", "lng": 9.0022871, "lat": 45.6548024 },
  { "city": "Sormano", "lng": 9.248741, "lat": 45.877782 },
  { "city": "Tavernerio", "lng": 9.1464359, "lat": 45.8024262 },
  { "city": "Zelbio", "lng": 9.180539, "lat": 45.904582 },
  { "city": "Veleso", "lng": 9.182139, "lat": 45.908382 },
  { "city": "Vercana", "lng": 9.335137, "lat": 46.159489 },
  { "city": "Corte de' Cortesi", "lng": 10.007869, "lat": 45.273174 },
  { "city": "Cappella Cantone", "lng": 9.8384742, "lat": 45.2468451 },
  { "city": "Casalbuttano", "lng": 9.961668, "lat": 45.251873 },
  { "city": "Grumello Cremonese", "lng": 9.8663353, "lat": 45.1941383 },
  { "city": "Ca' De Mari", "lng": 10.1156022, "lat": 45.1568734 },
  { "city": "Gabbioneta", "lng": 10.2215208, "lat": 45.2161874 },
  { "city": "Credera", "lng": 9.65606, "lat": 45.303271 },
  { "city": "Ripalta Nuova", "lng": 9.692661, "lat": 45.332472 },
  { "city": "Pozzaglio", "lng": 10.0503375, "lat": 45.2003707 },
  { "city": "Pescarolo", "lng": 10.1866296, "lat": 45.1949504 },
  { "city": "Persico Dosimo", "lng": 10.0892489, "lat": 45.1823484 },
  { "city": "Gerre de' Caprioli", "lng": 10.0514072, "lat": 45.0902086 },
  { "city": "Sesto Cremonese", "lng": 9.9148339, "lat": 45.1764963 },
  { "city": "Rivarolo del Re ed Uniti", "lng": 10.469783, "lat": 45.027972 },
  { "city": "Ripalta Arpina", "lng": 9.728962, "lat": 45.301872 },
  { "city": "Pizzighettone", "lng": 9.789865, "lat": 45.18907 },
  { "city": "Azzanello", "lng": 9.9215972, "lat": 45.3128687 },
  { "city": "Annicco", "lng": 9.879466, "lat": 45.244572 },
  { "city": "Inverigo", "lng": 9.2236117, "lat": 45.7404839 },
  { "city": "Laglio", "lng": 9.1380307, "lat": 45.880967 },
  { "city": "Lambrugo", "lng": 9.2418452, "lat": 45.7591907 },
  { "city": "Lanzo d'Intelvi", "lng": 9.0207604, "lat": 45.9791282 },
  { "city": "Lenno", "lng": 9.190838, "lat": 45.972983 },
  { "city": "Limido Comasco", "lng": 8.979838, "lat": 45.689174 },
  { "city": "Lipomo", "lng": 9.1216456, "lat": 45.7945033 },
  { "city": "Locate Varesino", "lng": 8.9306787, "lat": 45.6888509 },
  { "city": "Longone al Segrino", "lng": 9.2504238, "lat": 45.819244 },
  { "city": "Luisago", "lng": 9.035438, "lat": 45.762877 },
  { "city": "Lurago d'Erba", "lng": 9.2249299, "lat": 45.7530331 },
  { "city": "Lurago Marinone", "lng": 8.981338, "lat": 45.705775 },
  { "city": "Magreglio", "lng": 9.262095, "lat": 45.9207466 },
  { "city": "Maslianico", "lng": 9.047196, "lat": 45.8428272 },
  { "city": "Mozzate", "lng": 8.9557618, "lat": 45.675188 },
  { "city": "Ponte Lambro", "lng": 9.225441, "lat": 45.82658 },
  { "city": "Oltrona di San Mamette", "lng": 8.976296, "lat": 45.7569619 },
  { "city": "Grandate", "lng": 9.057838, "lat": 45.775177 },
  { "city": "Proserpio", "lng": 9.245542, "lat": 45.82828 },
  { "city": "Asso", "lng": 9.2694511, "lat": 45.8612989 },
  { "city": "Brenna", "lng": 9.187142, "lat": 45.742978 },
  { "city": "Binago", "lng": 8.9221591, "lat": 45.7844117 },
  { "city": "Cabiate", "lng": 9.173743, "lat": 45.674176 },
  { "city": "Brienno", "lng": 9.1312719, "lat": 45.9114396 },
  { "city": "Cantù", "lng": 9.129103, "lat": 45.7395347 },
  { "city": "Cagno", "lng": 8.9220009, "lat": 45.8127963 },
  { "city": "Canzo", "lng": 9.2748022, "lat": 45.8506406 },
  { "city": "Ronago", "lng": 8.983636, "lat": 45.832278 },
  { "city": "Rodero", "lng": 8.915234, "lat": 45.823977 },
  { "city": "Bordolano", "lng": 9.9867101, "lat": 45.2939854 },
  { "city": "Bonemerse", "lng": 10.077473, "lat": 45.11367 },
  { "city": "Bagnolo Cremasco", "lng": 9.612958, "lat": 45.361172 },
  { "city": "Agnadello", "lng": 9.557056, "lat": 45.444374 },
  { "city": "Volongo", "lng": 10.3018212, "lat": 45.2122916 },
  { "city": "Vaiano Cremasco", "lng": 9.587158, "lat": 45.371972 },
  { "city": "Trigolo", "lng": 9.8151283, "lat": 45.3283941 },
  { "city": "Torre de' Picenardi", "lng": 10.286877, "lat": 45.143573 },
  { "city": "Tornata", "lng": 10.430781, "lat": 45.104373 },
  { "city": "Ticengo", "lng": 9.827663, "lat": 45.369274 },
  { "city": "Stagno Lombardo", "lng": 10.0892046, "lat": 45.0731571 },
  { "city": "Spineda", "lng": 10.5133806, "lat": 45.0603009 },
  { "city": "Spinadesco", "lng": 9.9296724, "lat": 45.1487508 },
  { "city": "Pieve San Giacomo", "lng": 10.186275, "lat": 45.130272 },
  { "city": "Pieve d'Olmi", "lng": 10.123675, "lat": 45.08957 },
  { "city": "Piadena", "lng": 10.3687468, "lat": 45.1308551 },
  { "city": "Genivolta", "lng": 9.877265, "lat": 45.332574 },
  { "city": "Gombito", "lng": 9.7280002, "lat": 45.261556 },
  { "city": "Dovera", "lng": 9.5416879, "lat": 45.3651533 },
  { "city": "Fiesco", "lng": 9.7776099, "lat": 45.3363613 },
  { "city": "Crema", "lng": 9.6874573, "lat": 45.362828 },
  { "city": "Chieve", "lng": 9.616459, "lat": 45.340472 },
  { "city": "Corte de' Frati", "lng": 10.0966845, "lat": 45.2200295 },
  { "city": "Castelverde", "lng": 9.99557, "lat": 45.188771 },
  { "city": "Castelvisconti", "lng": 9.941067, "lat": 45.305374 },
  { "city": "Casalmorano", "lng": 9.899666, "lat": 45.286373 },
  { "city": "Castelleone", "lng": 9.7643016, "lat": 45.2938133 },
  { "city": "Cappella de' Picenardi", "lng": 10.229976, "lat": 45.158573 },
  { "city": "Casaletto di Sopra", "lng": 9.782561, "lat": 45.419175 },
  { "city": "Capergnanica", "lng": 9.64336, "lat": 45.337572 },
  { "city": "Casaletto Ceredano", "lng": 9.617559, "lat": 45.318071 },
  { "city": "Capralba", "lng": 9.643258, "lat": 45.444075 },
  { "city": "Casalmaggiore", "lng": 10.4153504, "lat": 44.9863857 },
  { "city": "Casaletto Vaprio", "lng": 9.628758, "lat": 45.408174 },
  { "city": "Calvatone", "lng": 10.441281, "lat": 45.128574 },
  { "city": "Palazzo Pignano", "lng": 9.569557, "lat": 45.390073 },
  { "city": "Campagnola Cremasca", "lng": 9.669459, "lat": 45.398474 },
  { "city": "Camisano", "lng": 9.74576, "lat": 45.443275 },
  { "city": "San Giovanni in Croce", "lng": 10.37518, "lat": 45.078872 },
  { "city": "San Daniele Po", "lng": 10.182276, "lat": 45.06377 },
  { "city": "Scandolara Ravara", "lng": 10.3016995, "lat": 45.0531197 },
  { "city": "San Martino del Lago", "lng": 10.3168597, "lat": 45.0732478 },
  { "city": "Ripalta Guerina", "lng": 9.7051398, "lat": 45.3060082 },
  { "city": "Salvirola", "lng": 9.7802426, "lat": 45.3555434 },
  { "city": "Malagnino", "lng": 10.114774, "lat": 45.134771 },
  { "city": "Montodine", "lng": 9.707262, "lat": 45.285171 },
  { "city": "Motta Baluffi", "lng": 10.2592469, "lat": 45.0550973 },
  { "city": "Paderno Ponchielli", "lng": 9.930268, "lat": 45.238872 },
  { "city": "Drizzona", "lng": 10.350279, "lat": 45.142174 },
  { "city": "Grontardo", "lng": 10.150773, "lat": 45.201873 },
  { "city": "Isola Dovarese", "lng": 10.3129568, "lat": 45.1762691 },
  { "city": "Cingia de' Botti", "lng": 10.275478, "lat": 45.085071 },
  { "city": "Crotta d'Adda", "lng": 9.8541585, "lat": 45.1584908 },
  { "city": "Cumignano sul Naviglio", "lng": 9.8355623, "lat": 45.3555026 },
  { "city": "Derovere", "lng": 10.247977, "lat": 45.109972 },
  { "city": "Casteldidone", "lng": 10.406281, "lat": 45.069472 },
  { "city": "Castel Gabbiano", "lng": 9.716459, "lat": 45.468276 },
  { "city": "Cella Dati", "lng": 10.221477, "lat": 45.095271 },
  { "city": "Cicognolo", "lng": 10.194575, "lat": 45.164573 },
  { "city": "Bulciago", "lng": 9.291047, "lat": 45.7547028 },
  { "city": "Brivio", "lng": 9.4441423, "lat": 45.7419691 },
  { "city": "Bellano", "lng": 9.3040324, "lat": 46.0429573 },
  { "city": "Barzanò", "lng": 9.312813, "lat": 45.7334743 },
  { "city": "Cassago Brianza", "lng": 9.2910879, "lat": 45.7382063 },
  { "city": "Casargo", "lng": 9.3882441, "lat": 46.0395202 },
  { "city": "Calolziocorte", "lng": 9.4329787, "lat": 45.8014719 },
  { "city": "Calco", "lng": 9.4159051, "lat": 45.7248681 },
  { "city": "Monticello Brianza", "lng": 9.3141406, "lat": 45.7087797 },
  { "city": "Garbagnate Monastero", "lng": 9.302857, "lat": 45.772846 },
  { "city": "Colico", "lng": 9.370737, "lat": 46.1353437 },
  { "city": "Ballabio", "lng": 9.423444, "lat": 45.898184 },
  { "city": "Valmadrera", "lng": 9.358244, "lat": 45.846282 },
  { "city": "Vassena", "lng": 9.2847366, "lat": 45.9305392 },
  { "city": "Olgiate Molgora", "lng": 9.403347, "lat": 45.730279 },
  { "city": "Lomagna", "lng": 9.376047, "lat": 45.667978 },
  { "city": "Mandello del Lario", "lng": 9.319341, "lat": 45.919183 },
  { "city": "Imbersago", "lng": 9.4445492, "lat": 45.7058733 },
  { "city": "Olginate", "lng": 9.4132788, "lat": 45.8009379 },
  { "city": "Pagnona", "lng": 9.4028931, "lat": 46.0597412 },
  { "city": "Molteno", "lng": 9.307444, "lat": 45.78038 },
  { "city": "Monte Marenzo", "lng": 9.454647, "lat": 45.770781 },
  { "city": "Costa Masnaga", "lng": 9.2763722, "lat": 45.7679634 },
  { "city": "Cremeno", "lng": 9.4737288, "lat": 45.9348502 },
  { "city": "Civate", "lng": 9.342944, "lat": 45.828081 },
  { "city": "Cortenova", "lng": 9.3831654, "lat": 45.9999225 },
  { "city": "Galbiate", "lng": 9.3750153, "lat": 45.8175344 },
  { "city": "Garlate", "lng": 9.4019699, "lat": 45.8060395 },
  { "city": "Erve", "lng": 9.452846, "lat": 45.821582 },
  { "city": "Pandino", "lng": 9.553456, "lat": 45.407073 },
  { "city": "Ostiano", "lng": 10.252075, "lat": 45.220775 },
  { "city": "Pianengo", "lng": 9.694759, "lat": 45.402174 },
  { "city": "Pessina Cremonese", "lng": 10.248676, "lat": 45.185474 },
  { "city": "Quintano", "lng": 9.618557, "lat": 45.420474 },
  { "city": "Pieranica", "lng": 9.6103764, "lat": 45.4257937 },
  { "city": "Rivolta d'Adda", "lng": 9.512551, "lat": 45.4706593 },
  { "city": "Ricengo", "lng": 9.72396, "lat": 45.405674 },
  { "city": "Izano", "lng": 9.755023, "lat": 45.355448 },
  { "city": "Gussola", "lng": 10.3501373, "lat": 45.0112627 },
  { "city": "Martignana di Po", "lng": 10.3797507, "lat": 45.0111116 },
  { "city": "Moscazzano", "lng": 9.683461, "lat": 45.292271 },
  { "city": "Monte Cremasco", "lng": 9.5727662, "lat": 45.3734822 },
  { "city": "Olmeneta", "lng": 10.02227, "lat": 45.235873 },
  { "city": "Offanengo", "lng": 9.742361, "lat": 45.378874 },
  { "city": "Torlino Vimercati", "lng": 9.5947015, "lat": 45.4179618 },
  { "city": "Torricella del Pizzo", "lng": 10.2926531, "lat": 45.0196019 },
  { "city": "Trescore Cremasco", "lng": 9.624958, "lat": 45.401573 },
  { "city": "Vailate", "lng": 9.6029783, "lat": 45.463353 },
  { "city": "Vescovato", "lng": 10.164574, "lat": 45.175073 },
  { "city": "Voltido", "lng": 10.3328342, "lat": 45.1116474 },
  { "city": "Nibionno", "lng": 9.268944, "lat": 45.746479 },
  { "city": "Robecco d'Oglio", "lng": 10.076571, "lat": 45.259374 },
  { "city": "Scandolara Ripa d'Oglio", "lng": 10.159773, "lat": 45.221074 },
  { "city": "Sergnano", "lng": 9.701659, "lat": 45.428875 },
  { "city": "Solarolo Rainerio", "lng": 10.35628, "lat": 45.081572 },
  { "city": "Soncino", "lng": 9.8744242, "lat": 45.3989753 },
  { "city": "Soresina", "lng": 9.856965, "lat": 45.286473 },
  { "city": "Sospiro", "lng": 10.157675, "lat": 45.108571 },
  { "city": "Spino d’Adda", "lng": 9.492255, "lat": 45.398872 },
  { "city": "Vestreno", "lng": 9.3246595, "lat": 46.0837983 },
  { "city": "Vercurago", "lng": 9.424433, "lat": 45.8129461 },
  { "city": "Cornegliano Laudense", "lng": 9.487957, "lat": 45.286169 },
  { "city": "Viganò", "lng": 9.3245602, "lat": 45.7246346 },
  { "city": "Sueglio", "lng": 9.3323598, "lat": 46.0860608 },
  { "city": "Sirone", "lng": 9.322144, "lat": 45.77268 },
  { "city": "Varenna", "lng": 9.2831593, "lat": 46.0099785 },
  { "city": "Boffalora d'Adda", "lng": 9.4948843, "lat": 45.3584945 },
  { "city": "Bertonico", "lng": 9.668062, "lat": 45.23307 },
  { "city": "Casaletto Lodigiano", "lng": 9.361954, "lat": 45.293568 },
  { "city": "Brembio", "lng": 9.57146, "lat": 45.214568 },
  { "city": "Vidardo", "lng": 9.404556, "lat": 45.257268 },
  { "city": "Tavazzano", "lng": 9.406354, "lat": 45.32727 },
  { "city": "Corte Palasio", "lng": 9.564308, "lat": 45.3096097 },
  { "city": "Merate", "lng": 9.411648, "lat": 45.698679 },
  { "city": "Missaglia", "lng": 9.335754, "lat": 45.7087169 },
  { "city": "Moggio", "lng": 9.4879073, "lat": 45.9322665 },
  { "city": "Montevecchia", "lng": 9.3754169, "lat": 45.7057341 },
  { "city": "Introbio", "lng": 9.4530705, "lat": 45.972641 },
  { "city": "Introzzo", "lng": 9.342137, "lat": 46.0804623 },
  { "city": "Malgrate", "lng": 9.3752977, "lat": 45.8526004 },
  { "city": "Margno", "lng": 9.381641, "lat": 46.030987 },
  { "city": "Premana", "lng": 9.423463, "lat": 46.05173 },
  { "city": "Primaluna", "lng": 9.4296082, "lat": 45.9869713 },
  { "city": "Robbiate", "lng": 9.4413225, "lat": 45.6911341 },
  { "city": "Rovagnate", "lng": 9.3695359, "lat": 45.7385802 },
  { "city": "Oggiono", "lng": 9.346745, "lat": 45.79188 },
  { "city": "Osnago", "lng": 9.391148, "lat": 45.675678 },
  { "city": "Paderno d'Adda", "lng": 9.4445595, "lat": 45.6814584 },
  { "city": "Cassina Valsassina", "lng": 9.478945, "lat": 45.932085 },
  { "city": "Casatenovo", "lng": 9.3122039, "lat": 45.6979217 },
  { "city": "Carenno", "lng": 9.462047, "lat": 45.803482 },
  { "city": "Bosisio Parini", "lng": 9.290743, "lat": 45.80228 },
  { "city": "Barzio", "lng": 9.4687648, "lat": 45.9460948 },
  { "city": "Barzago", "lng": 9.314244, "lat": 45.755479 },
  { "city": "Annone di Brianza", "lng": 9.3325797, "lat": 45.8073199 },
  { "city": "Airuno", "lng": 9.424247, "lat": 45.75388 },
  { "city": "Ello", "lng": 9.365345, "lat": 45.78568 },
  { "city": "Dorio", "lng": 9.3192704, "lat": 46.1018115 },
  { "city": "Dolzago", "lng": 9.339345, "lat": 45.76698 },
  { "city": "Dervio", "lng": 9.3045277, "lat": 46.0765742 },
  { "city": "Cremella", "lng": 9.2998854, "lat": 45.7416805 },
  { "city": "Crandola Valsassina", "lng": 9.378763, "lat": 46.0228917 },
  { "city": "Cesana Brianza", "lng": 9.299543, "lat": 45.816781 },
  { "city": "Cernusco Lombardone", "lng": 9.4006975, "lat": 45.69286 },
  { "city": "Santa Maria Hoè", "lng": 9.3750111, "lat": 45.7443892 },
  { "city": "Sirtori", "lng": 9.330845, "lat": 45.736579 },
  { "city": "Pescate", "lng": 9.393945, "lat": 45.833482 },
  { "city": "Rogeno", "lng": 9.2740431, "lat": 45.7823791 },
  { "city": "Perego", "lng": 9.3597486, "lat": 45.7373114 },
  { "city": "Perledo", "lng": 9.2963201, "lat": 46.0128352 },
  { "city": "Parlasco", "lng": 9.34494, "lat": 46.017886 },
  { "city": "Pasturo", "lng": 9.4421694, "lat": 45.9517834 },
  { "city": "Abbadia Lariana", "lng": 9.3340562, "lat": 45.9000453 },
  { "city": "Valgreghentino", "lng": 9.4121681, "lat": 45.7698711 },
  { "city": "Torre de' Busi", "lng": 9.480377, "lat": 45.7745656 },
  { "city": "Suello", "lng": 9.311543, "lat": 45.816781 },
  { "city": "Taceno", "lng": 9.36394, "lat": 46.024486 },
  { "city": "Somaglia", "lng": 9.6379307, "lat": 45.1467201 },
  { "city": "Secugnago", "lng": 9.59346, "lat": 45.232869 },
  { "city": "Turano Lodigiano", "lng": 9.621461, "lat": 45.24887 },
  { "city": "Pieve di Coriano", "lng": 11.1082525, "lat": 45.0337994 },
  { "city": "Ponti sul Mincio", "lng": 10.6872208, "lat": 45.4125151 },
  { "city": "Piubega", "lng": 10.5345083, "lat": 45.2273091 },
  { "city": "Quistello", "lng": 10.9804599, "lat": 45.0065791 },
  { "city": "Quingentole", "lng": 11.045796, "lat": 45.039077 },
  { "city": "Rivarolo Mantovano", "lng": 10.432104, "lat": 45.0703092 },
  { "city": "Redondesco", "lng": 10.512282, "lat": 45.166376 },
  { "city": "Roverbella", "lng": 10.767527, "lat": 45.2657803 },
  { "city": "Rodigo", "lng": 10.624984, "lat": 45.199577 },
  { "city": "San Giacomo delle Segnate", "lng": 11.033097, "lat": 44.972575 },
  { "city": "Galgagnano", "lng": 9.445355, "lat": 45.357971 },
  { "city": "Guardamiglio", "lng": 9.6797907, "lat": 45.1099019 },
  { "city": "Livraga", "lng": 9.54646, "lat": 45.192268 },
  { "city": "Lodi Vecchio", "lng": 9.4165986, "lat": 45.301075 },
  { "city": "Marudo", "lng": 9.377155, "lat": 45.252967 },
  { "city": "Massalengo", "lng": 9.4902448, "lat": 45.2647203 },
  { "city": "Meleti", "lng": 9.836968, "lat": 45.118868 },
  { "city": "Merlino", "lng": 9.429853, "lat": 45.433372 },
  { "city": "Montanaso Lombardo", "lng": 9.468656, "lat": 45.33577 },
  { "city": "Mulazzano", "lng": 9.3979929, "lat": 45.3734919 },
  { "city": "Salerano sul Lambro", "lng": 9.385155, "lat": 45.296569 },
  { "city": "San Fiorano", "lng": 9.722165, "lat": 45.136368 },
  { "city": "San Rocco al Porto", "lng": 9.697165, "lat": 45.081966 },
  { "city": "Santo Stefano Lodigiano", "lng": 9.7356142, "lat": 45.1200659 },
  { "city": "Zelo Buon Persico", "lng": 9.4317571, "lat": 45.4110598 },
  { "city": "Villanova del Sillaro", "lng": 9.481858, "lat": 45.237968 },
  { "city": "Valera Fratta", "lng": 9.3360078, "lat": 45.2569315 },
  { "city": "Sordio", "lng": 9.365693, "lat": 45.3411434 },
  { "city": "Camairago", "lng": 9.727464, "lat": 45.205269 },
  { "city": "Borgo San Giovanni", "lng": 9.4358358, "lat": 45.278042 },
  { "city": "Borghetto Lodigiano", "lng": 9.4996828, "lat": 45.2132677 },
  { "city": "Abbadia Cerreto", "lng": 9.5942124, "lat": 45.3119118 },
  { "city": "Castiglione d'Adda", "lng": 9.6941106, "lat": 45.2189124 },
  { "city": "Castelnuovo Bocca d'Adda", "lng": 9.8679588, "lat": 45.1128416 },
  { "city": "Caselle Landi", "lng": 9.795567, "lat": 45.102568 },
  { "city": "Casalpusterlengo", "lng": 9.6483958, "lat": 45.1793292 },
  { "city": "Fombio", "lng": 9.6844794, "lat": 45.1366292 },
  { "city": "Cornovecchio", "lng": 9.799367, "lat": 45.136668 },
  { "city": "Comazzo", "lng": 9.464654, "lat": 45.440973 },
  { "city": "Codogno", "lng": 9.70437, "lat": 45.1600664 },
  { "city": "Cavacurta", "lng": 9.741864, "lat": 45.189769 },
  { "city": "Cavenago d'Adda", "lng": 9.601442, "lat": 45.2840104 },
  { "city": "Casalmaiocco", "lng": 9.374353, "lat": 45.35387 },
  { "city": "Caselle Lurani", "lng": 9.3602247, "lat": 45.2803877 },
  { "city": "Crespiatica", "lng": 9.575158, "lat": 45.356672 },
  { "city": "Graffignana", "lng": 9.452577, "lat": 45.2091882 },
  { "city": "Cervignano d'Adda", "lng": 9.424054, "lat": 45.373871 },
  { "city": "Corno Giovine", "lng": 9.7585115, "lat": 45.1332909 },
  { "city": "Ospedaletto Lodigiano", "lng": 9.578661, "lat": 45.168767 },
  { "city": "Ossago Lodigiano", "lng": 9.537059, "lat": 45.245669 },
  { "city": "Mairago", "lng": 9.57836, "lat": 45.251769 },
  { "city": "Orio Litta", "lng": 9.5542069, "lat": 45.1603133 },
  { "city": "Sant'Angelo Lodigiano", "lng": 9.408656, "lat": 45.238067 },
  { "city": "Senna Lodigiana", "lng": 9.593862, "lat": 45.151667 },
  { "city": "Pieve Fissiraga", "lng": 9.458357, "lat": 45.263268 },
  { "city": "San Martino in Strada", "lng": 9.5280318, "lat": 45.2715321 },
  { "city": "Arcore", "lng": 9.3214647, "lat": 45.626556 },
  { "city": "Assago", "lng": 9.1313547, "lat": 45.4053966 },
  { "city": "Bareggio", "lng": 8.9959733, "lat": 45.4777256 },
  { "city": "Abbiategrasso", "lng": 8.9162299, "lat": 45.398733 },
  { "city": "Agrate Brianza", "lng": 9.3509475, "lat": 45.5761735 },
  { "city": "Albiate", "lng": 9.2557963, "lat": 45.6589901 },
  { "city": "Arconate", "lng": 8.8481616, "lat": 45.5406637 },
  { "city": "Sustinente", "lng": 11.0196043, "lat": 45.0692724 },
  { "city": "Suzzara", "lng": 10.74309, "lat": 44.991873 },
  { "city": "Viadana", "lng": 10.520223, "lat": 44.9267857 },
  { "city": "Villa Poma", "lng": 11.114498, "lat": 45.002377 },
  { "city": "San Giovanni del Dosso", "lng": 11.0816168, "lat": 44.9668926 },
  { "city": "San Martino dall'Argine", "lng": 10.5183482, "lat": 45.0990557 },
  { "city": "Schivenoglia", "lng": 11.0729809, "lat": 44.9950936 },
  { "city": "Solferino", "lng": 10.566679, "lat": 45.368581 },
  { "city": "Revere", "lng": 11.131298, "lat": 45.053478 },
  { "city": "Pomponesco", "lng": 10.591879, "lat": 44.9287557 },
  { "city": "Sabbioneta", "lng": 10.4885871, "lat": 44.9984358 },
  { "city": "Roncoferraro", "lng": 10.9513541, "lat": 45.1359287 },
  { "city": "Monzambano", "lng": 10.6924039, "lat": 45.386139 },
  { "city": "Marmirolo", "lng": 10.756393, "lat": 45.2205633 },
  { "city": "Poggio Rusco", "lng": 11.1146492, "lat": 44.9755577 },
  { "city": "Ostiglia", "lng": 11.13641, "lat": 45.0703901 },
  { "city": "Gonzaga", "lng": 10.822623, "lat": 44.9524875 },
  { "city": "Goito", "lng": 10.6729409, "lat": 45.2545067 },
  { "city": "Mariana Mantovana", "lng": 10.486881, "lat": 45.192876 },
  { "city": "Guidizzolo", "lng": 10.580481, "lat": 45.32068 },
  { "city": "Cavriana", "lng": 10.6007909, "lat": 45.3513347 },
  {
    "city": "Castiglione delle Stiviere",
    "lng": 10.4888745,
    "lat": 45.3896766
  },
  { "city": "Gazzuolo", "lng": 10.5831131, "lat": 45.0691748 },
  { "city": "Felonica", "lng": 11.3547204, "lat": 44.9808449 },
  { "city": "Carbonara di Po", "lng": 11.228166, "lat": 45.0378617 },
  { "city": "Castel Goffredo", "lng": 10.4729815, "lat": 45.2952784 },
  { "city": "Borgofranco sul Po", "lng": 11.2052709, "lat": 45.0488123 },
  { "city": "Bozzolo", "lng": 10.483982, "lat": 45.102474 },
  { "city": "Pegognaga", "lng": 10.8587724, "lat": 44.9959881 },
  { "city": "Bagnolo San Vito", "lng": 10.8804287, "lat": 45.0922527 },
  { "city": "Moglia", "lng": 10.913395, "lat": 44.937174 },
  { "city": "Motteggiana", "lng": 10.7640229, "lat": 45.0349397 },
  { "city": "Marcaria", "lng": 10.532783, "lat": 45.120575 },
  { "city": "Medole", "lng": 10.5144051, "lat": 45.3242539 },
  { "city": "Gazoldo degli Ippoliti", "lng": 10.579383, "lat": 45.200277 },
  { "city": "Magnacavallo", "lng": 11.1811, "lat": 45.005578 },
  { "city": "Commessaggio", "lng": 10.5453454, "lat": 45.0344427 },
  { "city": "Dosolo", "lng": 10.637588, "lat": 44.953372 },
  { "city": "Castellucchio", "lng": 10.648485, "lat": 45.147276 },
  { "city": "Ceresara", "lng": 10.567035, "lat": 45.2651301 },
  { "city": "Castel d'Ario", "lng": 10.9751299, "lat": 45.189008 },
  { "city": "Castelbelforte", "lng": 10.8927608, "lat": 45.2147122 },
  { "city": "Casalromano", "lng": 10.369378, "lat": 45.200675 },
  { "city": "Casaloldo", "lng": 10.474379, "lat": 45.254777 },
  { "city": "Casalmoro", "lng": 10.404478, "lat": 45.259577 },
  { "city": "Canneto sull'Oglio", "lng": 10.3797364, "lat": 45.1494046 },
  { "city": "Borgoforte", "lng": 10.749289, "lat": 45.051275 },
  { "city": "Asola", "lng": 10.4130654, "lat": 45.2211195 },
  { "city": "Acquanegra sul Chiese", "lng": 10.43468, "lat": 45.162475 },
  { "city": "Cerese", "lng": 10.7879015, "lat": 45.117897 },
  { "city": "Bigarello", "lng": 10.9255849, "lat": 45.2023225 },
  { "city": "Volta Mantovana", "lng": 10.6592238, "lat": 45.3213025 },
  { "city": "Villimpenta", "lng": 11.030232, "lat": 45.144747 },
  { "city": "Serravalle a Po", "lng": 11.100535, "lat": 45.0728848 },
  { "city": "Sermide", "lng": 11.2988715, "lat": 45.0064835 },
  { "city": "Magenta", "lng": 8.8838429, "lat": 45.4653931 },
  { "city": "Masate", "lng": 9.4638211, "lat": 45.5675473 },
  { "city": "Mesero", "lng": 8.8542025, "lat": 45.501314 },
  { "city": "Mezzago", "lng": 9.44485, "lat": 45.628977 },
  { "city": "Misinto", "lng": 9.083941, "lat": 45.662375 },
  { "city": "Motta Visconti", "lng": 8.9924871, "lat": 45.288179 },
  { "city": "Nosate", "lng": 8.7253233, "lat": 45.552211 },
  { "city": "Inzago", "lng": 9.482052, "lat": 45.540475 },
  { "city": "Lacchiarella", "lng": 9.137047, "lat": 45.3218476 },
  { "city": "Lainate", "lng": 9.028461, "lat": 45.5717302 },
  { "city": "Lazzate", "lng": 9.0852196, "lat": 45.6723256 },
  { "city": "Lentate sul Seveso", "lng": 9.1181696, "lat": 45.6784049 },
  { "city": "Lesmo", "lng": 9.3056827, "lat": 45.6488983 },
  { "city": "Limbiate", "lng": 9.1200412, "lat": 45.598524 },
  { "city": "Macherio", "lng": 9.269371, "lat": 45.640116 },
  { "city": "Dairago", "lng": 8.8631736, "lat": 45.565972 },
  { "city": "Corsico", "lng": 9.108939, "lat": 45.4307363 },
  { "city": "Dresano", "lng": 9.3606419, "lat": 45.3729705 },
  { "city": "Desio", "lng": 9.2081245, "lat": 45.6183103 },
  { "city": "Gessate", "lng": 9.4351918, "lat": 45.5543877 },
  { "city": "Inveruno", "lng": 8.8519543, "lat": 45.5138305 },
  { "city": "Gudo Visconti", "lng": 9.000605, "lat": 45.3746994 },
  { "city": "Cogliate", "lng": 9.0819874, "lat": 45.6454161 },
  { "city": "Cisliano", "lng": 8.9890914, "lat": 45.4450193 },
  { "city": "Colturano", "lng": 9.337852, "lat": 45.37977 },
  { "city": "Cologno Monzese", "lng": 9.2782244, "lat": 45.528554 },
  { "city": "Cornaredo", "lng": 9.025746, "lat": 45.5016851 },
  { "city": "Cormano", "lng": 9.1707872, "lat": 45.5440234 },
  { "city": "Correzzana", "lng": 9.3036259, "lat": 45.6656887 },
  { "city": "Cornate d'Adda", "lng": 9.4659391, "lat": 45.6466993 },
  { "city": "Casorezzo", "lng": 8.90154, "lat": 45.52437 },
  { "city": "Cassano d'Adda", "lng": 9.5214907, "lat": 45.5263333 },
  { "city": "Casarile", "lng": 9.1049027, "lat": 45.3178884 },
  { "city": "Cerro Maggiore", "lng": 8.9513923, "lat": 45.5930123 },
  { "city": "Cassinetta di Lugagnano", "lng": 8.9083136, "lat": 45.4235759 },
  { "city": "Castano Primo", "lng": 8.7769924, "lat": 45.5515936 },
  { "city": "Mediglia", "lng": 9.331652, "lat": 45.39537 },
  { "city": "Calvignasco", "lng": 9.027746, "lat": 45.325966 },
  { "city": "Usmate", "lng": 9.3623836, "lat": 45.650812 },
  { "city": "Bettola", "lng": 9.3118199, "lat": 45.4317946 },
  { "city": "Canegrate", "lng": 8.9267921, "lat": 45.5705379 },
  { "city": "Carate Brianza", "lng": 9.2371619, "lat": 45.6765494 },
  { "city": "Buccinasco", "lng": 9.1082675, "lat": 45.4223013 },
  { "city": "Briosco", "lng": 9.240644, "lat": 45.710077 },
  { "city": "Pozzo d'Adda", "lng": 9.5003771, "lat": 45.5756656 },
  { "city": "Pieve Emanuele", "lng": 9.2020722, "lat": 45.3559126 },
  { "city": "Rodano", "lng": 9.3549881, "lat": 45.4751079 },
  { "city": "Roncello", "lng": 9.4576108, "lat": 45.6024427 },
  { "city": "Rescaldina", "lng": 8.9489311, "lat": 45.6159737 },
  { "city": "Renate", "lng": 9.279944, "lat": 45.724378 },
  { "city": "Pozzuolo Martesana", "lng": 9.456252, "lat": 45.513975 },
  { "city": "Bernareggio", "lng": 9.4061375, "lat": 45.6475083 },
  { "city": "Bellusco", "lng": 9.418633, "lat": 45.6187478 },
  { "city": "Basiano", "lng": 9.4678537, "lat": 45.5735877 },
  { "city": "Barlassina", "lng": 9.1301014, "lat": 45.656416 },
  { "city": "Boffalora sopra Ticino", "lng": 8.8306109, "lat": 45.4672571 },
  { "city": "Biassono", "lng": 9.2751203, "lat": 45.6309866 },
  { "city": "Besate", "lng": 8.969645, "lat": 45.312965 },
  { "city": "Seregno", "lng": 9.2053999, "lat": 45.649723 },
  { "city": "Settala", "lng": 9.3867659, "lat": 45.4544127 },
  { "city": "Solaro", "lng": 9.0810206, "lat": 45.6175264 },
  { "city": "Sovico", "lng": 9.2648372, "lat": 45.6485558 },
  { "city": "San Giorgio su Legnano", "lng": 8.913739, "lat": 45.573771 },
  { "city": "Sedriano", "lng": 8.9687313, "lat": 45.4883326 },
  { "city": "Segrate", "lng": 9.2948204, "lat": 45.4907352 },
  { "city": "Senago", "lng": 9.1244464, "lat": 45.5761376 },
  { "city": "Ronco Briantino", "lng": 9.4006983, "lat": 45.6675633 },
  { "city": "Rozzano", "lng": 9.1541309, "lat": 45.3832366 },
  { "city": "San Donato Milanese", "lng": 9.27165, "lat": 45.41807 },
  { "city": "Ozzero", "lng": 8.9245144, "lat": 45.3658483 },
  { "city": "Pantigliate", "lng": 9.352631, "lat": 45.439548 },
  { "city": "Robecchetto", "lng": 8.7646845, "lat": 45.5328503 },
  { "city": "Robecco sul Naviglio", "lng": 8.887279, "lat": 45.4365073 },
  { "city": "Vanzaghello", "lng": 8.7823717, "lat": 45.5792526 },
  { "city": "Villa Cortese", "lng": 8.8889918, "lat": 45.5665917 },
  { "city": "Cambiago", "lng": 9.4268416, "lat": 45.5725439 },
  { "city": "Noviglio", "lng": 9.0537901, "lat": 45.3586424 },
  { "city": "Vimodrone", "lng": 9.2846717, "lat": 45.5128319 },
  { "city": "Vimercate", "lng": 9.37006, "lat": 45.6139627 },
  { "city": "Zibido San Giacomo", "lng": 9.1097761, "lat": 45.3611096 },
  { "city": "Zelo Surrigone", "lng": 8.985546, "lat": 45.3884221 },
  { "city": "Vermezzo", "lng": 8.9810625, "lat": 45.394647 },
  { "city": "Verano Brianza", "lng": 9.230477, "lat": 45.6881861 },
  { "city": "Villasanta", "lng": 9.3005709, "lat": 45.6039807 },
  { "city": "Vernate", "lng": 9.0609682, "lat": 45.3161472 },
  { "city": "Vaprio d'Adda", "lng": 9.5291744, "lat": 45.5765762 },
  { "city": "Trezzo sull'Adda", "lng": 9.5198437, "lat": 45.6087178 },
  { "city": "Vedano al Lambro", "lng": 9.2750718, "lat": 45.611508 },
  { "city": "Varedo", "lng": 9.1562926, "lat": 45.5974437 },
  { "city": "Cuggiono", "lng": 8.8152655, "lat": 45.5062394 },
  { "city": "Cusago", "lng": 9.0363223, "lat": 45.4498179 },
  { "city": "Concorezzo", "lng": 9.335948, "lat": 45.589675 },
  { "city": "Corbetta", "lng": 8.9200896, "lat": 45.4659366 },
  { "city": "Cesano Maderno", "lng": 9.1462397, "lat": 45.6281892 },
  { "city": "Cesate", "lng": 9.0747366, "lat": 45.5941861 },
  { "city": "Cerro al Lambro", "lng": 9.339053, "lat": 45.329969 },
  { "city": "Cesano Boscone", "lng": 9.0934033, "lat": 45.4474882 },
  { "city": "Ceriano Laghetto", "lng": 9.0807968, "lat": 45.6283491 },
  { "city": "Cernusco sul Naviglio", "lng": 9.330925, "lat": 45.5245578 },
  { "city": "Cassina de' Pecchi", "lng": 9.3619763, "lat": 45.5191887 },
  { "city": "Cavenago di Brianza", "lng": 9.4160593, "lat": 45.584917 },
  { "city": "Carnate", "lng": 9.3790871, "lat": 45.6472814 },
  { "city": "Carugate", "lng": 9.343749, "lat": 45.549774 },
  { "city": "Camparada", "lng": 9.319646, "lat": 45.655977 },
  { "city": "Caponago", "lng": 9.3754414, "lat": 45.5654382 },
  { "city": "Torre Beretti", "lng": 8.670943, "lat": 45.059956 },
  { "city": "Santa Cristina", "lng": 9.399757, "lat": 45.157565 },
  { "city": "San Genesio ed Uniti", "lng": 9.178551, "lat": 45.234765 },
  { "city": "Rocca de' Giorgi", "lng": 9.253158, "lat": 44.97136 },
  { "city": "Mornico Losana", "lng": 9.2051126, "lat": 45.0103307 },
  { "city": "Montecalvo Versiggia", "lng": 9.2855415, "lat": 44.971268 },
  { "city": "Montebello della Battaglia", "lng": 9.103454, "lat": 45.000959 },
  { "city": "Inverno e Monteleone", "lng": 9.385256, "lat": 45.197866 },
  { "city": "Gravellona Lomellina", "lng": 8.76414, "lat": 45.327664 },
  { "city": "Corvino San Quirico", "lng": 9.162397, "lat": 45.0101856 },
  { "city": "Rho", "lng": 9.04156, "lat": 45.528878 },
  { "city": "Pregnana Milanese", "lng": 9.0080123, "lat": 45.5158489 },
  { "city": "Tribiano", "lng": 9.378952, "lat": 45.413371 },
  { "city": "Santo Stefano Ticino", "lng": 8.9186265, "lat": 45.4872627 },
  { "city": "San Vittore Olona", "lng": 8.9426962, "lat": 45.5860911 },
  { "city": "San Zenone al Lambro", "lng": 9.355253, "lat": 45.327269 },
  { "city": "Sesto San Giovanni", "lng": 9.2376549, "lat": 45.5357218 },
  { "city": "Settimo Milanese", "lng": 9.0546807, "lat": 45.4794715 },
  { "city": "Seveso", "lng": 9.1373787, "lat": 45.6434655 },
  { "city": "Sulbiate", "lng": 9.4206842, "lat": 45.6339993 },
  { "city": "Trezzano Rosa", "lng": 9.4870409, "lat": 45.5828314 },
  { "city": "Novate Milanese", "lng": 9.1401207, "lat": 45.5319497 },
  { "city": "Parabiago", "lng": 8.9479761, "lat": 45.5586385 },
  { "city": "Pero", "lng": 9.0894415, "lat": 45.5101617 },
  { "city": "Rosate", "lng": 9.0174784, "lat": 45.3519922 },
  { "city": "San Giuliano Milanese", "lng": 9.291851, "lat": 45.39427 },
  { "city": "Baranzate", "lng": 9.1169467, "lat": 45.5278124 },
  { "city": "Vizzolo Predabissi", "lng": 9.3497623, "lat": 45.35636 },
  { "city": "Aicurzio", "lng": 9.414949, "lat": 45.639977 },
  { "city": "Arluno", "lng": 8.941541, "lat": 45.50507 },
  { "city": "Bernate Ticino", "lng": 8.8180386, "lat": 45.4793424 },
  { "city": "Bellinzago Lombardo", "lng": 9.445951, "lat": 45.542075 },
  { "city": "Triuggio", "lng": 9.2674406, "lat": 45.6613638 },
  { "city": "Trezzano sul Naviglio", "lng": 9.0710538, "lat": 45.4182125 },
  { "city": "Turbigo", "lng": 8.7366656, "lat": 45.5291504 },
  { "city": "Truccazzano", "lng": 9.4685402, "lat": 45.483715 },
  { "city": "Veduggio", "lng": 9.2726297, "lat": 45.7351441 },
  { "city": "Vanzago", "lng": 8.9949548, "lat": 45.5268256 },
  { "city": "Vittuone", "lng": 8.952442, "lat": 45.487969 },
  { "city": "Vignate", "lng": 9.376651, "lat": 45.496573 },
  { "city": "Bussero", "lng": 9.3720032, "lat": 45.5366764 },
  { "city": "Busto Garolfo", "lng": 8.8832703, "lat": 45.5455579 },
  { "city": "Buscate", "lng": 8.8129426, "lat": 45.5449159 },
  { "city": "Busnago", "lng": 9.4656704, "lat": 45.6161843 },
  { "city": "Giussano", "lng": 9.2097294, "lat": 45.6993814 },
  { "city": "Gorgonzola", "lng": 9.404651, "lat": 45.531574 },
  { "city": "Cusano Milanino", "lng": 9.1856198, "lat": 45.5519897 },
  { "city": "Gaggiano", "lng": 9.0344178, "lat": 45.4064613 },
  { "city": "Bollate", "lng": 9.1151877, "lat": 45.544479 },
  { "city": "Bovisio Masciago", "lng": 9.1490172, "lat": 45.6100484 },
  { "city": "Besana in Brianza", "lng": 9.2895415, "lat": 45.7025382 },
  { "city": "Binasco", "lng": 9.0999868, "lat": 45.3319695 },
  { "city": "Bubbiano", "lng": 9.014546, "lat": 45.327266 },
  { "city": "Burago di Molgora", "lng": 9.3777061, "lat": 45.5966599 },
  { "city": "Bresso", "lng": 9.1889678, "lat": 45.5372394 },
  { "city": "Brugherio", "lng": 9.3012222, "lat": 45.5507486 },
  { "city": "Nerviano", "lng": 8.970719, "lat": 45.5536472 },
  { "city": "Morimondo", "lng": 8.9548111, "lat": 45.3524418 },
  { "city": "Monza", "lng": 9.2735257, "lat": 45.5834418 },
  { "city": "Melzo", "lng": 9.4242513, "lat": 45.4985848 },
  { "city": "Ossona", "lng": 8.9012659, "lat": 45.5062108 },
  { "city": "Ornago", "lng": 9.4222142, "lat": 45.5984036 },
  { "city": "Opera", "lng": 9.211149, "lat": 45.373069 },
  { "city": "Nova Milanese", "lng": 9.2003742, "lat": 45.5892665 },
  { "city": "Lissone", "lng": 9.2408409, "lat": 45.6107705 },
  { "city": "Liscate", "lng": 9.4090115, "lat": 45.4815487 },
  { "city": "Legnano", "lng": 8.9183595, "lat": 45.5946985 },
  { "city": "Grezzago", "lng": 9.4952028, "lat": 45.5918653 },
  { "city": "Melegnano", "lng": 9.3239755, "lat": 45.3587886 },
  { "city": "Meda", "lng": 9.1567532, "lat": 45.6625046 },
  { "city": "Magnago", "lng": 8.8018508, "lat": 45.5787312 },
  { "city": "Giussago", "lng": 9.140749, "lat": 45.284766 },
  { "city": "Genzone", "lng": 9.3473035, "lat": 45.1808769 },
  { "city": "Golferenzo", "lng": 9.3069524, "lat": 44.962021 },
  { "city": "Costa de' Nobili", "lng": 9.3789043, "lat": 45.1320538 },
  { "city": "Corteolona", "lng": 9.3694691, "lat": 45.1572133 },
  { "city": "Garlasco", "lng": 8.9227105, "lat": 45.1961584 },
  { "city": "Frascarolo", "lng": 8.682044, "lat": 45.046656 },
  { "city": "Marcignago", "lng": 9.079349, "lat": 45.253065 },
  { "city": "Magherno", "lng": 9.329355, "lat": 45.223566 },
  { "city": "Mede", "lng": 8.736176, "lat": 45.0974469 },
  { "city": "Marzano", "lng": 9.295054, "lat": 45.247967 },
  { "city": "Landriano", "lng": 9.260052, "lat": 45.311968 },
  { "city": "Gropello Cairoli", "lng": 8.9940314, "lat": 45.1786091 },
  { "city": "Lungavilla", "lng": 9.081353, "lat": 45.04066 },
  { "city": "Lomello", "lng": 8.796245, "lat": 45.121059 },
  { "city": "Olevano di Lomellina", "lng": 8.7172694, "lat": 45.2129605 },
  { "city": "Ottobiano", "lng": 8.8292093, "lat": 45.1528163 },
  { "city": "Pancarana", "lng": 9.0507905, "lat": 45.0749275 },
  { "city": "Pietra de' Giorgi", "lng": 9.2305464, "lat": 45.0206699 },
  { "city": "Mezzana Bigli", "lng": 8.848447, "lat": 45.059858 },
  { "city": "Miradolo Terme", "lng": 9.445558, "lat": 45.171966 },
  { "city": "Montù Beccaria", "lng": 9.3155381, "lat": 45.0369456 },
  { "city": "Mortara", "lng": 8.7374279, "lat": 45.2513474 },
  { "city": "Albonese", "lng": 8.706322, "lat": 45.2944385 },
  { "city": "Arena Po", "lng": 9.3628461, "lat": 45.0966059 },
  { "city": "Barbianello", "lng": 9.205155, "lat": 45.076662 },
  { "city": "Bastida de' Dossi", "lng": 8.9218494, "lat": 45.0391875 },
  { "city": "Pieve Albignola", "lng": 8.9587996, "lat": 45.113111 },
  { "city": "Pieve Porto Morone", "lng": 9.435759, "lat": 45.109364 },
  { "city": "Ponte Nizza", "lng": 9.0972428, "lat": 44.851548 },
  { "city": "Alagna", "lng": 8.889846, "lat": 45.169861 },
  { "city": "Carbonara al Ticino", "lng": 9.0619572, "lat": 45.1654222 },
  { "city": "Calvignano", "lng": 9.1681632, "lat": 44.9827441 },
  { "city": "Broni", "lng": 9.2611911, "lat": 45.0621619 },
  { "city": "Breme", "lng": 8.6235671, "lat": 45.1269219 },
  { "city": "Bosnasco", "lng": 9.3584773, "lat": 45.0643632 },
  { "city": "Bornasco", "lng": 9.217951, "lat": 45.266566 },
  { "city": "Borgarello", "lng": 9.14055, "lat": 45.240665 },
  { "city": "Battuda", "lng": 9.078048, "lat": 45.274665 },
  { "city": "Gerenzago", "lng": 9.359656, "lat": 45.206566 },
  { "city": "Gambolò", "lng": 8.8590602, "lat": 45.2590302 },
  { "city": "Gambarana", "lng": 8.7625383, "lat": 45.0289586 },
  { "city": "Castello d'Agogna", "lng": 8.68714, "lat": 45.234561 },
  { "city": "Cassolnovo", "lng": 8.8100884, "lat": 45.3655599 },
  { "city": "Casorate Primo", "lng": 9.0179614, "lat": 45.3123851 },
  { "city": "Casatisma", "lng": 9.131954, "lat": 45.04906 },
  { "city": "Casanova Lonati", "lng": 9.2134516, "lat": 45.094464 },
  { "city": "Mezzanino Po", "lng": 9.2078009, "lat": 45.1242222 },
  { "city": "Montalto Pavese", "lng": 9.2097613, "lat": 44.979273 },
  { "city": "Menconico", "lng": 9.2792795, "lat": 44.7963638 },
  { "city": "Mezzana Rabattone", "lng": 9.0312537, "lat": 45.0948626 },
  { "city": "Linarolo", "lng": 9.2709102, "lat": 45.1609808 },
  { "city": "Lirio", "lng": 9.255568, "lat": 44.993982 },
  { "city": "Langosco", "lng": 8.5637296, "lat": 45.2143674 },
  { "city": "Lardirago", "lng": 9.2332129, "lat": 45.2353406 },
  { "city": "Pieve del Cairo", "lng": 8.804146, "lat": 45.049957 },
  { "city": "Pinarolo Po", "lng": 9.167254, "lat": 45.069861 },
  { "city": "Palestro", "lng": 8.533436, "lat": 45.301761 },
  { "city": "Parona", "lng": 8.7508446, "lat": 45.2826019 },
  { "city": "Nicorvo", "lng": 8.667939, "lat": 45.285662 },
  { "city": "Oliva Gessi", "lng": 9.179355, "lat": 45.00356 },
  { "city": "Montesegale", "lng": 9.1270728, "lat": 44.906251 },
  { "city": "Monticelli Pavese", "lng": 9.5150492, "lat": 45.1107312 },
  { "city": "Albuzzano", "lng": 9.27504, "lat": 45.1866257 },
  { "city": "Bagnaria", "lng": 9.1226055, "lat": 44.8272619 },
  { "city": "Certosa di Pavia", "lng": 9.1278876, "lat": 45.2543547 },
  { "city": "Bascapè", "lng": 9.313453, "lat": 45.308268 },
  { "city": "Montescano", "lng": 9.2961671, "lat": 45.0326442 },
  { "city": "Belgioioso", "lng": 9.313756, "lat": 45.158565 },
  { "city": "Bastida Pancarana", "lng": 9.085152, "lat": 45.086061 },
  { "city": "Borgo Priolo", "lng": 9.1485039, "lat": 44.9664487 },
  { "city": "Bereguardo", "lng": 9.0279569, "lat": 45.257378 },
  { "city": "Redavalle", "lng": 9.2039179, "lat": 45.0374456 },
  { "city": "Portalbera", "lng": 9.318857, "lat": 45.097563 },
  { "city": "Retorbido", "lng": 9.0361743, "lat": 44.9493005 },
  { "city": "Robecco Pavese", "lng": 9.15016, "lat": 45.0483636 },
  { "city": "Roncaro", "lng": 9.275453, "lat": 45.228166 },
  { "city": "Rovescala", "lng": 9.3487527, "lat": 45.0114213 },
  { "city": "San Cipriano Po", "lng": 9.2829052, "lat": 45.1086791 },
  { "city": "San Damiano al Colle", "lng": 9.346559, "lat": 45.024862 },
  { "city": "San Giorgio di Lomellina", "lng": 8.790098, "lat": 45.1744127 },
  { "city": "Santa Giuletta", "lng": 9.1815028, "lat": 45.0338362 },
  { "city": "Sant'Alessio", "lng": 9.2260439, "lat": 45.2223683 },
  { "city": "Santa Maria della Versa", "lng": 9.3001984, "lat": 44.9861766 },
  { "city": "San Zenone al Po", "lng": 9.361758, "lat": 45.108564 },
  { "city": "Scaldasole", "lng": 8.909653, "lat": 45.1249845 },
  { "city": "Siziano", "lng": 9.2011222, "lat": 45.3174678 },
  { "city": "Stradella", "lng": 9.2950171, "lat": 45.0773563 },
  { "city": "Torricella Verzate", "lng": 9.1755821, "lat": 45.0179256 },
  { "city": "Torre d'Isola", "lng": 9.0764193, "lat": 45.2183509 },
  { "city": "Torre de' Negri", "lng": 9.334556, "lat": 45.149665 },
  { "city": "Suardi", "lng": 8.742945, "lat": 45.034656 },
  { "city": "Velezzo Lomellina", "lng": 8.737243, "lat": 45.163359 },
  { "city": "Trovo", "lng": 9.035447, "lat": 45.282965 },
  { "city": "Tromello", "lng": 8.8717307, "lat": 45.2091305 },
  { "city": "Travacò Siccomario", "lng": 9.1596467, "lat": 45.1490672 },
  { "city": "Villanterio", "lng": 9.364356, "lat": 45.219467 },
  { "city": "Vidigulfo", "lng": 9.236651, "lat": 45.292267 },
  { "city": "Verrua Po", "lng": 9.1755596, "lat": 45.1096492 },
  { "city": "Verretto", "lng": 9.1084758, "lat": 45.0392343 },
  { "city": "Zenevredo", "lng": 9.325658, "lat": 45.054262 },
  { "city": "Zeccone", "lng": 9.2011444, "lat": 45.2578688 },
  { "city": "Zavattarello", "lng": 9.2652299, "lat": 44.8684762 },
  { "city": "Volpara", "lng": 9.2970972, "lat": 44.9530362 },
  { "city": "Brallo di Pregola", "lng": 9.28137, "lat": 44.7381861 },
  { "city": "Bressana", "lng": 9.132653, "lat": 45.078861 },
  { "city": "Zerbo", "lng": 9.396058, "lat": 45.110464 },
  { "city": "Castelletto Po", "lng": 9.0984963, "lat": 45.0708754 },
  { "city": "Borgoratto Mormorolo", "lng": 9.193257, "lat": 44.930658 },
  { "city": "Canneto Pavese", "lng": 9.278757, "lat": 45.050462 },
  { "city": "Candia Lomellina", "lng": 8.59484, "lat": 45.178758 },
  { "city": "Castana", "lng": 9.272457, "lat": 45.026761 },
  { "city": "Borgo San Siro", "lng": 8.9133606, "lat": 45.234969 },
  { "city": "Campospinoso", "lng": 9.2449549, "lat": 45.0944235 },
  { "city": "Chignolo Po", "lng": 9.481559, "lat": 45.148166 },
  { "city": "Cilavegna", "lng": 8.7433478, "lat": 45.309752 },
  { "city": "Casteggio", "lng": 9.1235778, "lat": 45.0141141 },
  { "city": "Cervesina", "lng": 9.016151, "lat": 45.061259 },
  { "city": "Rasura", "lng": 9.5529709, "lat": 46.1006655 },
  { "city": "Ponte in Valtellina", "lng": 9.977851, "lat": 46.174996 },
  { "city": "Poggiridenti", "lng": 9.9262461, "lat": 46.1756616 },
  { "city": "Novate Mezzola", "lng": 9.4494176, "lat": 46.2211714 },
  { "city": "Morbegno", "lng": 9.5694656, "lat": 46.1321629 },
  { "city": "Montagna in Valtellina", "lng": 9.90295, "lat": 46.178495 },
  { "city": "Mello", "lng": 9.5479018, "lat": 46.1541948 },
  { "city": "Mazzo di Valtellina", "lng": 10.256656, "lat": 46.2586 },
  { "city": "Mantello", "lng": 9.4885023, "lat": 46.1522359 },
  { "city": "Albosaggia", "lng": 9.8531698, "lat": 46.1472316 },
  { "city": "Villa di Tirano", "lng": 10.133854, "lat": 46.203898 },
  { "city": "Sant'Antonio", "lng": 10.4244451, "lat": 46.4587059 },
  { "city": "Piazza", "lng": 10.3602919, "lat": 46.4398749 },
  { "city": "Prata Camportaccio", "lng": 9.395236, "lat": 46.307194 },
  { "city": "Piateda", "lng": 9.9422848, "lat": 46.1587767 },
  { "city": "Mese", "lng": 9.3803256, "lat": 46.3052737 },
  { "city": "Faedo Valtellino", "lng": 9.90605, "lat": 46.152995 },
  { "city": "Forcola", "lng": 9.6708477, "lat": 46.1587741 },
  { "city": "Castione Andevenno", "lng": 9.800247, "lat": 46.172794 },
  { "city": "Cosio Valtellino", "lng": 9.5291545, "lat": 46.1337409 },
  { "city": "Tresivio", "lng": 9.942551, "lat": 46.175695 },
  { "city": "Albaredo per San Marco", "lng": 9.590044, "lat": 46.10349 },
  { "city": "Torre di Santa Maria", "lng": 9.851604, "lat": 46.2335291 },
  { "city": "Sernio", "lng": 10.2040968, "lat": 46.2245349 },
  { "city": "Teglio", "lng": 10.0641264, "lat": 46.172675 },
  { "city": "Lovero", "lng": 10.228556, "lat": 46.2314 },
  { "city": "Lanzada", "lng": 9.869247, "lat": 46.269297 },
  { "city": "Lozza", "lng": 8.857734, "lat": 45.775675 },
  { "city": "Fusine", "lng": 9.7490975, "lat": 46.1490413 },
  { "city": "Delebio", "lng": 9.46064, "lat": 46.13609 },
  { "city": "Grosio", "lng": 10.2745156, "lat": 46.2989301 },
  { "city": "Gordona", "lng": 9.3657433, "lat": 46.2916801 },
  { "city": "Chiesa in Valmalenco", "lng": 9.8496555, "lat": 46.2640846 },
  { "city": "Civo", "lng": 9.5608421, "lat": 46.1543311 },
  { "city": "Dazio", "lng": 9.6008391, "lat": 46.1612697 },
  { "city": "Colorina", "lng": 9.7328367, "lat": 46.1510725 },
  { "city": "Cedrasco", "lng": 9.767444, "lat": 46.1489585 },
  { "city": "Castello dell'Acqua", "lng": 10.013553, "lat": 46.145995 },
  { "city": "Chiavenna", "lng": 9.3984945, "lat": 46.3197862 },
  { "city": "Cercino", "lng": 9.508141, "lat": 46.158091 },
  { "city": "Ardenno", "lng": 9.644944, "lat": 46.164292 },
  { "city": "Bianzone", "lng": 10.109354, "lat": 46.188197 },
  { "city": "Caiolo", "lng": 9.814548, "lat": 46.149994 },
  { "city": "Campodolcino", "lng": 9.3532536, "lat": 46.4028756 },
  { "city": "Verceia", "lng": 9.454493, "lat": 46.1989987 },
  { "city": "Vervio", "lng": 10.2402255, "lat": 46.2528354 },
  { "city": "Andalo Valtellino", "lng": 9.4735483, "lat": 46.1336397 },
  { "city": "Aprica", "lng": 10.151656, "lat": 46.152697 },
  { "city": "Talamona", "lng": 9.6105308, "lat": 46.1360901 },
  { "city": "Tovo di Sant'Agata", "lng": 10.2464531, "lat": 46.2447793 },
  { "city": "Traona", "lng": 9.525796, "lat": 46.1496199 },
  { "city": "Rogolo", "lng": 9.4873167, "lat": 46.1357463 },
  { "city": "San Giacomo Filippo", "lng": 9.370685, "lat": 46.3374131 },
  { "city": "Sondalo", "lng": 10.3248633, "lat": 46.331392 },
  { "city": "Castelnovetto", "lng": 8.611838, "lat": 45.25476 },
  { "city": "Zerbolò", "lng": 9.0129546, "lat": 45.2071663 },
  { "city": "Zeme", "lng": 8.6659204, "lat": 45.197302 },
  { "city": "Voghera", "lng": 9.0086667, "lat": 44.9926704 },
  { "city": "Ceretto Lomellina", "lng": 8.6724399, "lat": 45.2449611 },
  { "city": "Ceranova", "lng": 9.243152, "lat": 45.260266 },
  { "city": "Cecima", "lng": 9.0802378, "lat": 44.8509689 },
  { "city": "Cava Manara", "lng": 9.1068597, "lat": 45.1401734 },
  { "city": "Vellezzo Bellini", "lng": 9.099249, "lat": 45.270665 },
  { "city": "Varzi", "lng": 9.1969039, "lat": 44.8235397 },
  { "city": "Valle Salimbene", "lng": 9.2347159, "lat": 45.1719317 },
  { "city": "Valle Lomellina", "lng": 8.668542, "lat": 45.153058 },
  { "city": "Vistarino", "lng": 9.308254, "lat": 45.210766 },
  { "city": "Villanova d'Ardenghi", "lng": 9.042349, "lat": 45.171662 },
  { "city": "Villa Biscossi", "lng": 8.7869936, "lat": 45.090393 },
  { "city": "Vigevano", "lng": 8.858603, "lat": 45.3170942 },
  { "city": "Spessa", "lng": 9.34943, "lat": 45.1127279 },
  { "city": "Torrazza Coste", "lng": 9.0878226, "lat": 44.9759482 },
  { "city": "Sartirana Lomellina", "lng": 8.6642435, "lat": 45.1138448 },
  { "city": "Sommo", "lng": 9.0833839, "lat": 45.1306498 },
  { "city": "Trivolzio", "lng": 9.042748, "lat": 45.258464 },
  { "city": "Valeggio", "lng": 8.859946, "lat": 45.15066 },
  { "city": "Torre d'Arese", "lng": 9.3172552, "lat": 45.2426037 },
  { "city": "Rognano", "lng": 9.090248, "lat": 45.288466 },
  { "city": "Romagnese", "lng": 9.330068, "lat": 44.8394798 },
  { "city": "Rivanazzano Terme", "lng": 9.014159, "lat": 44.9307667 },
  { "city": "Robbio", "lng": 8.5932785, "lat": 45.2899709 },
  { "city": "Sannazzaro de' Burgondi", "lng": 8.906348, "lat": 45.102259 },
  { "city": "Sant'Angelo Lomellina", "lng": 8.644439, "lat": 45.247061 },